{
"type": "FeatureCollection",
"crs": { "type": "name", "properties": { "name": "urn:ogc:def:crs:OGC:1.3:CRS84" } },
                                                                                
"features": [
{ "type": "Feature", "properties": { "osm_id": 1086034843.000000, "timestamp": null, "name": "Pharmacie", "type": "pharmacy" }, "geometry": { "type": "Point", "coordinates": [ -8.020622, 12.59677 ] } },
{ "type": "Feature", "properties": { "osm_id": 1086034858.000000, "timestamp": null, "name": "Kala DJATA", "type": "doctors" }, "geometry": { "type": "Point", "coordinates": [ -8.025983, 12.596505 ] } },
{ "type": "Feature", "properties": { "osm_id": 1086034879.000000, "timestamp": null, "name": null, "type": "pharmacy" }, "geometry": { "type": "Point", "coordinates": [ -8.016763, 12.595429 ] } },
{ "type": "Feature", "properties": { "osm_id": 1118567824.000000, "timestamp": null, "name": "chouala", "type": "doctors" }, "geometry": { "type": "Point", "coordinates": [ -7.940739, 12.680187 ] } },
{ "type": "Feature", "properties": { "osm_id": 1150899217.000000, "timestamp": null, "name": "hôpital de reference, commune VI", "type": "hospital" }, "geometry": { "type": "Point", "coordinates": [ -7.966272, 12.602647 ] } },
{ "type": "Feature", "properties": { "osm_id": 1805225097.000000, "timestamp": null, "name": null, "type": "pharmacy" }, "geometry": { "type": "Point", "coordinates": [ -7.947385, 12.670178 ] } },
{ "type": "Feature", "properties": { "osm_id": 1805225116.000000, "timestamp": null, "name": null, "type": "pharmacy" }, "geometry": { "type": "Point", "coordinates": [ -7.939089, 12.671842 ] } },
{ "type": "Feature", "properties": { "osm_id": 1805225119.000000, "timestamp": null, "name": null, "type": "pharmacy" }, "geometry": { "type": "Point", "coordinates": [ -7.938151, 12.671871 ] } },
{ "type": "Feature", "properties": { "osm_id": 1805225128.000000, "timestamp": null, "name": null, "type": "pharmacy" }, "geometry": { "type": "Point", "coordinates": [ -7.929421, 12.673482 ] } },
{ "type": "Feature", "properties": { "osm_id": 1805336246.000000, "timestamp": null, "name": null, "type": "pharmacy" }, "geometry": { "type": "Point", "coordinates": [ -7.963141, 12.668609 ] } },
{ "type": "Feature", "properties": { "osm_id": 1806354733.000000, "timestamp": null, "name": "clinique sognogo bamuna", "type": "doctors" }, "geometry": { "type": "Point", "coordinates": [ -7.955631, 12.672802 ] } },
{ "type": "Feature", "properties": { "osm_id": 1829778680.000000, "timestamp": null, "name": null, "type": "pharmacy" }, "geometry": { "type": "Point", "coordinates": [ -7.973353, 12.662899 ] } },
{ "type": "Feature", "properties": { "osm_id": 1829903666.000000, "timestamp": null, "name": "CSCOM BENKADI", "type": "hospital" }, "geometry": { "type": "Point", "coordinates": [ -7.974258, 12.653384 ] } },
{ "type": "Feature", "properties": { "osm_id": 1830115406.000000, "timestamp": null, "name": "ASACODJE", "type": "hospital" }, "geometry": { "type": "Point", "coordinates": [ -7.943614, 12.67241 ] } },
{ "type": "Feature", "properties": { "osm_id": 1838472571.000000, "timestamp": null, "name": "Climique experience", "type": "hospital" }, "geometry": { "type": "Point", "coordinates": [ -7.938051, 12.67779 ] } },
{ "type": "Feature", "properties": { "osm_id": 1838621970.000000, "timestamp": null, "name": "kénéya", "type": "pharmacy" }, "geometry": { "type": "Point", "coordinates": [ -7.981101, 12.651654 ] } },
{ "type": "Feature", "properties": { "osm_id": 1845456785.000000, "timestamp": null, "name": "CSRef de la Commune III", "type": "hospital" }, "geometry": { "type": "Point", "coordinates": [ -8.006385, 12.641586 ] } },
{ "type": "Feature", "properties": { "osm_id": 1879067601.000000, "timestamp": null, "name": null, "type": "pharmacy" }, "geometry": { "type": "Point", "coordinates": [ -7.984632, 12.61969 ] } },
{ "type": "Feature", "properties": { "osm_id": 1907336386.000000, "timestamp": null, "name": null, "type": "pharmacy" }, "geometry": { "type": "Point", "coordinates": [ -7.989453, 12.623666 ] } },
{ "type": "Feature", "properties": { "osm_id": 1933376732.000000, "timestamp": null, "name": null, "type": "pharmacy" }, "geometry": { "type": "Point", "coordinates": [ -7.929667, 12.681467 ] } },
{ "type": "Feature", "properties": { "osm_id": 2125034210.000000, "timestamp": null, "name": "Clinique Pasteur", "type": "hospital" }, "geometry": { "type": "Point", "coordinates": [ -8.02027, 12.632616 ] } },
{ "type": "Feature", "properties": { "osm_id": -2137417664.000000, "timestamp": null, "name": "CSREF d'Abeibara", "type": "clinic" }, "geometry": { "type": "Point", "coordinates": [ 1.844586, 19.348974 ] } },
{ "type": "Feature", "properties": { "osm_id": -2137417663.000000, "timestamp": null, "name": "Centre de Santé de Référence de Bourem", "type": "clinic" }, "geometry": { "type": "Point", "coordinates": [ -0.351121, 16.953433 ] } },
{ "type": "Feature", "properties": { "osm_id": -2137417661.000000, "timestamp": null, "name": "Centre de Santé de Référence de Kidal", "type": "clinic" }, "geometry": { "type": "Point", "coordinates": [ 1.401567, 18.437694 ] } },
{ "type": "Feature", "properties": { "osm_id": -2137417658.000000, "timestamp": null, "name": "CSREF de Tin-Essako", "type": "clinic" }, "geometry": { "type": "Point", "coordinates": [ 2.490944, 18.452274 ] } },
{ "type": "Feature", "properties": { "osm_id": -2137417657.000000, "timestamp": null, "name": "Hôpital Mère et Enfant", "type": "hospital" }, "geometry": { "type": "Point", "coordinates": [ -8.020017, 12.643232 ] } },
{ "type": "Feature", "properties": { "osm_id": -2137417656.000000, "timestamp": null, "name": "Hôpital Nianakoro Fomba", "type": "hospital" }, "geometry": { "type": "Point", "coordinates": [ -6.257308, 13.431646 ] } },
{ "type": "Feature", "properties": { "osm_id": -2137417655.000000, "timestamp": null, "name": "Hôpital SOMINO DOLO", "type": "hospital" }, "geometry": { "type": "Point", "coordinates": [ -4.196161, 14.498291 ] } },
{ "type": "Feature", "properties": { "osm_id": -2137169507.000000, "timestamp": null, "name": "Centre de Santé de Référence de Goundam", "type": "clinic" }, "geometry": { "type": "Point", "coordinates": [ -3.66222, 16.41778 ] } },
{ "type": "Feature", "properties": { "osm_id": -2137169501.000000, "timestamp": null, "name": "DIEMA Centre de Santé de Référence", "type": "doctors" }, "geometry": { "type": "Point", "coordinates": [ -9.183407, 14.533438 ] } },
{ "type": "Feature", "properties": { "osm_id": -2136524186.000000, "timestamp": null, "name": "Centre de Santé de Référence de Kadiolo", "type": "clinic" }, "geometry": { "type": "Point", "coordinates": [ -5.762108, 10.552181 ] } },
{ "type": "Feature", "properties": { "osm_id": -2136524181.000000, "timestamp": null, "name": "Centre de Santé de Référence de Kolokani", "type": "clinic" }, "geometry": { "type": "Point", "coordinates": [ -8.03472, 13.571177 ] } },
{ "type": "Feature", "properties": { "osm_id": -2136524136.000000, "timestamp": null, "name": "Centre de Santé de Référence de Douentza", "type": "clinic" }, "geometry": { "type": "Point", "coordinates": [ -2.950102, 15.00001 ] } },
{ "type": "Feature", "properties": { "osm_id": -2136524118.000000, "timestamp": null, "name": "Centre de Santé de Référence de Kita", "type": "clinic" }, "geometry": { "type": "Point", "coordinates": [ -9.483381, 13.016743 ] } },
{ "type": "Feature", "properties": { "osm_id": -2136524104.000000, "timestamp": null, "name": "Centre de Santé de Référence de Niono", "type": "clinic" }, "geometry": { "type": "Point", "coordinates": [ -5.98338, 14.25004 ] } },
{ "type": "Feature", "properties": { "osm_id": -2131128699.000000, "timestamp": null, "name": "A. PRO. PHA. M", "type": "pharmacy" }, "geometry": { "type": "Point", "coordinates": [ -8.00004, 12.60919 ] } },
{ "type": "Feature", "properties": { "osm_id": -2131128698.000000, "timestamp": null, "name": "ABEIBARA clinic", "type": "clinic" }, "geometry": { "type": "Point", "coordinates": [ 1.84468, 19.349138 ] } },
{ "type": "Feature", "properties": { "osm_id": -2131128697.000000, "timestamp": null, "name": "AISSATA FADY", "type": "pharmacy" }, "geometry": { "type": "Point", "coordinates": [ -11.39686, 14.33014 ] } },
{ "type": "Feature", "properties": { "osm_id": -2131128696.000000, "timestamp": null, "name": "ALLAMA", "type": "clinic" }, "geometry": { "type": "Point", "coordinates": [ -8.01583, 12.74556 ] } },
{ "type": "Feature", "properties": { "osm_id": -2131128695.000000, "timestamp": null, "name": "ALY Cissé", "type": "pharmacy" }, "geometry": { "type": "Point", "coordinates": [ -7.75026, 12.5834 ] } },
{ "type": "Feature", "properties": { "osm_id": -2131128694.000000, "timestamp": null, "name": "AMITIE", "type": "doctors" }, "geometry": { "type": "Point", "coordinates": [ -7.91702, 12.52775 ] } },
{ "type": "Feature", "properties": { "osm_id": -2131128693.000000, "timestamp": null, "name": "AMLIVA", "type": "doctors" }, "geometry": { "type": "Point", "coordinates": [ -11.483465, 14.450176 ] } },
{ "type": "Feature", "properties": { "osm_id": -2131128692.000000, "timestamp": null, "name": "ANONIME", "type": "doctors" }, "geometry": { "type": "Point", "coordinates": [ -7.98482, 12.56977 ] } },
{ "type": "Feature", "properties": { "osm_id": -2131128691.000000, "timestamp": null, "name": "ANSONGO clinic", "type": "clinic" }, "geometry": { "type": "Point", "coordinates": [ 0.501491, 15.665333 ] } },
{ "type": "Feature", "properties": { "osm_id": -2131128690.000000, "timestamp": null, "name": "ANTA", "type": "doctors" }, "geometry": { "type": "Point", "coordinates": [ -7.93341, 12.52972 ] } },
{ "type": "Feature", "properties": { "osm_id": -2131128689.000000, "timestamp": null, "name": "APE (Association des Tradi Thérapeute)", "type": "pharmacy" }, "geometry": { "type": "Point", "coordinates": [ -4.8835, 13.3201 ] } },
{ "type": "Feature", "properties": { "osm_id": -2131128688.000000, "timestamp": null, "name": "APGAR", "type": "doctors" }, "geometry": { "type": "Point", "coordinates": [ -7.98361, 12.59708 ] } },
{ "type": "Feature", "properties": { "osm_id": -2131128686.000000, "timestamp": null, "name": "ASSOCIATION PHARMACOPEE DU MALI", "type": "pharmacy" }, "geometry": { "type": "Point", "coordinates": [ -7.93359, 12.65322 ] } },
{ "type": "Feature", "properties": { "osm_id": -2131128685.000000, "timestamp": null, "name": "Alliance Santé Mère - Enfant", "type": "doctors" }, "geometry": { "type": "Point", "coordinates": [ -7.93656, 12.60023 ] } },
{ "type": "Feature", "properties": { "osm_id": -2131128684.000000, "timestamp": null, "name": "Almamy L Théra", "type": "pharmacy" }, "geometry": { "type": "Point", "coordinates": [ -7.98352, 12.60204 ] } },
{ "type": "Feature", "properties": { "osm_id": -2131128683.000000, "timestamp": null, "name": "Amina", "type": "pharmacy" }, "geometry": { "type": "Point", "coordinates": [ -8.00012, 12.60812 ] } },
{ "type": "Feature", "properties": { "osm_id": -2131128682.000000, "timestamp": null, "name": "B F", "type": "doctors" }, "geometry": { "type": "Point", "coordinates": [ -8.14691, 12.55017 ] } },
{ "type": "Feature", "properties": { "osm_id": -2131128680.000000, "timestamp": null, "name": "BALACONI", "type": "doctors" }, "geometry": { "type": "Point", "coordinates": [ -7.90911, 12.60216 ] } },
{ "type": "Feature", "properties": { "osm_id": -2131128679.000000, "timestamp": null, "name": "BAMA", "type": "doctors" }, "geometry": { "type": "Point", "coordinates": [ -7.98945, 12.58342 ] } },
{ "type": "Feature", "properties": { "osm_id": -2131128678.000000, "timestamp": null, "name": "BANAMBA clinic", "type": "clinic" }, "geometry": { "type": "Point", "coordinates": [ -7.433552, 13.550037 ] } },
{ "type": "Feature", "properties": { "osm_id": -2131128677.000000, "timestamp": null, "name": "BANDIAGARA clinic", "type": "clinic" }, "geometry": { "type": "Point", "coordinates": [ -3.600052, 14.333596 ] } },
{ "type": "Feature", "properties": { "osm_id": -2131128676.000000, "timestamp": null, "name": "BANKASS clinic", "type": "clinic" }, "geometry": { "type": "Point", "coordinates": [ -3.516681, 14.066895 ] } },
{ "type": "Feature", "properties": { "osm_id": -2131128675.000000, "timestamp": null, "name": "BARA SOW", "type": "clinic" }, "geometry": { "type": "Point", "coordinates": [ -7.97684, 12.56682 ] } },
{ "type": "Feature", "properties": { "osm_id": -2131128673.000000, "timestamp": null, "name": "BAYABA", "type": "doctors" }, "geometry": { "type": "Point", "coordinates": [ -7.98337, 12.57776 ] } },
{ "type": "Feature", "properties": { "osm_id": -2131128671.000000, "timestamp": null, "name": "BELEDOUGOU", "type": "doctors" }, "geometry": { "type": "Point", "coordinates": [ -8.13675, 12.73347 ] } },
{ "type": "Feature", "properties": { "osm_id": -2131128670.000000, "timestamp": null, "name": "BENCAN", "type": "doctors" }, "geometry": { "type": "Point", "coordinates": [ -7.91672, 12.5109 ] } },
{ "type": "Feature", "properties": { "osm_id": -2131128669.000000, "timestamp": null, "name": "BENKADY", "type": "pharmacy" }, "geometry": { "type": "Point", "coordinates": [ -7.99248, 12.58137 ] } },
{ "type": "Feature", "properties": { "osm_id": -2131128668.000000, "timestamp": null, "name": "BIOTECH", "type": "clinic" }, "geometry": { "type": "Point", "coordinates": [ -8.00704, 12.60019 ] } },
{ "type": "Feature", "properties": { "osm_id": -2131128667.000000, "timestamp": null, "name": "BLA clinic", "type": "clinic" }, "geometry": { "type": "Point", "coordinates": [ -5.75022, 12.93358 ] } },
{ "type": "Feature", "properties": { "osm_id": -2131128665.000000, "timestamp": null, "name": "BOUBACAR BELCO TOURE", "type": "doctors" }, "geometry": { "type": "Point", "coordinates": [ -6.25012, 13.43318 ] } },
{ "type": "Feature", "properties": { "osm_id": -2131128664.000000, "timestamp": null, "name": "BOUGOUNI clinic", "type": "clinic" }, "geometry": { "type": "Point", "coordinates": [ -7.487031, 11.418087 ] } },
{ "type": "Feature", "properties": { "osm_id": -2131128663.000000, "timestamp": null, "name": "BOUREM clinic", "type": "clinic" }, "geometry": { "type": "Point", "coordinates": [ -0.353889, 16.953333 ] } },
{ "type": "Feature", "properties": { "osm_id": -2131128662.000000, "timestamp": null, "name": "Ba Maria", "type": "pharmacy" }, "geometry": { "type": "Point", "coordinates": [ -7.50472, 11.19056 ] } },
{ "type": "Feature", "properties": { "osm_id": -2131128661.000000, "timestamp": null, "name": "Baba Diarra", "type": "pharmacy" }, "geometry": { "type": "Point", "coordinates": [ -7.99803, 12.58345 ] } },
{ "type": "Feature", "properties": { "osm_id": -2131128660.000000, "timestamp": null, "name": "Bakary Katilé", "type": "clinic" }, "geometry": { "type": "Point", "coordinates": [ -6.00001, 14.65001 ] } },
{ "type": "Feature", "properties": { "osm_id": -2131128658.000000, "timestamp": null, "name": "Boutout Sall", "type": "doctors" }, "geometry": { "type": "Point", "coordinates": [ -8.00511, 12.60014 ] } },
{ "type": "Feature", "properties": { "osm_id": -2131128655.000000, "timestamp": null, "name": "C M I E", "type": "clinic" }, "geometry": { "type": "Point", "coordinates": [ -6.26677, 13.43339 ] } },
{ "type": "Feature", "properties": { "osm_id": -2131128654.000000, "timestamp": null, "name": "CDT", "type": "doctors" }, "geometry": { "type": "Point", "coordinates": [ -7.99154, 12.63748 ] } },
{ "type": "Feature", "properties": { "osm_id": -2131128651.000000, "timestamp": null, "name": "CHEICK DEMBELE (Officine)", "type": "pharmacy" }, "geometry": { "type": "Point", "coordinates": [ -6.21669, 13.4168 ] } },
{ "type": "Feature", "properties": { "osm_id": -2131128650.000000, "timestamp": null, "name": "CHU CNOS", "type": "hospital" }, "geometry": { "type": "Point", "coordinates": [ -8.00353, 12.6367 ] } },
{ "type": "Feature", "properties": { "osm_id": -2131128647.000000, "timestamp": null, "name": "CIBSSK", "type": "clinic" }, "geometry": { "type": "Point", "coordinates": [ -7.53352, 12.866944 ] } },
{ "type": "Feature", "properties": { "osm_id": -2131128646.000000, "timestamp": null, "name": "CID - TERIYA", "type": "doctors" }, "geometry": { "type": "Point", "coordinates": [ -7.96784, 12.60019 ] } },
{ "type": "Feature", "properties": { "osm_id": -2131128645.000000, "timestamp": null, "name": "CMA", "type": "clinic" }, "geometry": { "type": "Point", "coordinates": [ -5.06669, 13.13352 ] } },
{ "type": "Feature", "properties": { "osm_id": -2131128642.000000, "timestamp": null, "name": "CMIE  - Chemin de Fer", "type": "clinic" }, "geometry": { "type": "Point", "coordinates": [ -11.42823, 14.46979 ] } },
{ "type": "Feature", "properties": { "osm_id": -2131128641.000000, "timestamp": null, "name": "CMIE  - Sikasso", "type": "clinic" }, "geometry": { "type": "Point", "coordinates": [ -5.90781, 10.95662 ] } },
{ "type": "Feature", "properties": { "osm_id": -2131128640.000000, "timestamp": null, "name": "CMIE - Bougouni", "type": "clinic" }, "geometry": { "type": "Point", "coordinates": [ -7.47783, 11.42287 ] } },
{ "type": "Feature", "properties": { "osm_id": -2131128639.000000, "timestamp": null, "name": "CMIE - Commune5", "type": "clinic" }, "geometry": { "type": "Point", "coordinates": [ -8.00223, 12.60697 ] } },
{ "type": "Feature", "properties": { "osm_id": -2131128638.000000, "timestamp": null, "name": "CMIE - Gao", "type": "clinic" }, "geometry": { "type": "Point", "coordinates": [ -0.091, 16.34272 ] } },
{ "type": "Feature", "properties": { "osm_id": -2131128637.000000, "timestamp": null, "name": "CMIE - Kati", "type": "clinic" }, "geometry": { "type": "Point", "coordinates": [ -8.03364, 12.63037 ] } },
{ "type": "Feature", "properties": { "osm_id": -2131128636.000000, "timestamp": null, "name": "CMIE - Kayes", "type": "clinic" }, "geometry": { "type": "Point", "coordinates": [ -11.42723, 14.46979 ] } },
{ "type": "Feature", "properties": { "osm_id": -2131128635.000000, "timestamp": null, "name": "CMIE - Kita", "type": "clinic" }, "geometry": { "type": "Point", "coordinates": [ -9.47413, 13.03525 ] } },
{ "type": "Feature", "properties": { "osm_id": -2131128634.000000, "timestamp": null, "name": "CMIE - Koulikoro", "type": "clinic" }, "geometry": { "type": "Point", "coordinates": [ -7.56654, 12.8934 ] } },
{ "type": "Feature", "properties": { "osm_id": -2131128633.000000, "timestamp": null, "name": "CMIE - Koutiala", "type": "clinic" }, "geometry": { "type": "Point", "coordinates": [ -5.47027, 12.39055 ] } },
{ "type": "Feature", "properties": { "osm_id": -2131128632.000000, "timestamp": null, "name": "CMIE - Mopti", "type": "clinic" }, "geometry": { "type": "Point", "coordinates": [ -4.195699, 14.516741 ] } },
{ "type": "Feature", "properties": { "osm_id": -2131128631.000000, "timestamp": null, "name": "CMIE - Nara", "type": "clinic" }, "geometry": { "type": "Point", "coordinates": [ -7.27389, 15.17979 ] } },
{ "type": "Feature", "properties": { "osm_id": -2131128630.000000, "timestamp": null, "name": "CMIE - Niono", "type": "clinic" }, "geometry": { "type": "Point", "coordinates": [ -5.98423, 14.25846 ] } },
{ "type": "Feature", "properties": { "osm_id": -2131128629.000000, "timestamp": null, "name": "CMIE - San", "type": "clinic" }, "geometry": { "type": "Point", "coordinates": [ -4.9041, 13.31178 ] } },
{ "type": "Feature", "properties": { "osm_id": -2131128628.000000, "timestamp": null, "name": "CMIE - Ségou", "type": "clinic" }, "geometry": { "type": "Point", "coordinates": [ -6.27467, 13.43968 ] } },
{ "type": "Feature", "properties": { "osm_id": -2131128627.000000, "timestamp": null, "name": "CMIE- Yanfolila", "type": "clinic" }, "geometry": { "type": "Point", "coordinates": [ -8.150738, 11.173607 ] } },
{ "type": "Feature", "properties": { "osm_id": -2131128626.000000, "timestamp": null, "name": "CMRRF", "type": "doctors" }, "geometry": { "type": "Point", "coordinates": [ -7.96074, 12.65219 ] } },
{ "type": "Feature", "properties": { "osm_id": -2131128623.000000, "timestamp": null, "name": "COH", "type": "clinic" }, "geometry": { "type": "Point", "coordinates": [ -8.0501, 12.61686 ] } },
{ "type": "Feature", "properties": { "osm_id": -2131128620.000000, "timestamp": null, "name": "COMMUNE5 clinic", "type": "clinic" }, "geometry": { "type": "Point", "coordinates": [ -7.97853, 12.60219 ] } },
{ "type": "Feature", "properties": { "osm_id": -2131128619.000000, "timestamp": null, "name": "COMMUNE6 clinic", "type": "clinic" }, "geometry": { "type": "Point", "coordinates": [ -7.94127, 12.60405 ] } },
{ "type": "Feature", "properties": { "osm_id": -2131128618.000000, "timestamp": null, "name": "CONFIDENCE", "type": "doctors" }, "geometry": { "type": "Point", "coordinates": [ -7.99409, 12.58755 ] } },
{ "type": "Feature", "properties": { "osm_id": -2131128616.000000, "timestamp": null, "name": "CSCOM de ABAKOIRA", "type": "clinic" }, "geometry": { "type": "Point", "coordinates": [ -1.570278, 17.034722 ] } },
{ "type": "Feature", "properties": { "osm_id": -2131128615.000000, "timestamp": null, "name": "CSCOM de ABEIBARA CENTRAL", "type": "clinic" }, "geometry": { "type": "Point", "coordinates": [ 1.98864, 19.46233 ] } },
{ "type": "Feature", "properties": { "osm_id": -2131128613.000000, "timestamp": null, "name": "CSCOM de ACHARANE", "type": "clinic" }, "geometry": { "type": "Point", "coordinates": [ -5.29455, 23.00839 ] } },
{ "type": "Feature", "properties": { "osm_id": -2131128610.000000, "timestamp": null, "name": "CSCOM de ADERMALANE", "type": "clinic" }, "geometry": { "type": "Point", "coordinates": [ -4.35126, 16.87462 ] } },
{ "type": "Feature", "properties": { "osm_id": -2131128609.000000, "timestamp": null, "name": "CSCOM de AGHABO", "type": "clinic" }, "geometry": { "type": "Point", "coordinates": [ 1.43629, 18.05124 ] } },
{ "type": "Feature", "properties": { "osm_id": -2131128608.000000, "timestamp": null, "name": "CSCOM de AGLAL", "type": "clinic" }, "geometry": { "type": "Point", "coordinates": [ -1.75981, 17.19239 ] } },
{ "type": "Feature", "properties": { "osm_id": -2131128607.000000, "timestamp": null, "name": "CSCOM de AGOUNI", "type": "clinic" }, "geometry": { "type": "Point", "coordinates": [ -3.5159, 21.07792 ] } },
{ "type": "Feature", "properties": { "osm_id": -2131128606.000000, "timestamp": null, "name": "CSCOM de ALIOU", "type": "clinic" }, "geometry": { "type": "Point", "coordinates": [ 1.70062, 18.32173 ] } },
{ "type": "Feature", "properties": { "osm_id": -2131128604.000000, "timestamp": null, "name": "CSCOM de ALLAHINA", "type": "clinic" }, "geometry": { "type": "Point", "coordinates": [ -8.6054, 15.09111 ] } },
{ "type": "Feature", "properties": { "osm_id": -2131128603.000000, "timestamp": null, "name": "CSCOM de ALMOUSTARAT", "type": "clinic" }, "geometry": { "type": "Point", "coordinates": [ 0.2513, 17.47898 ] } },
{ "type": "Feature", "properties": { "osm_id": -2131128602.000000, "timestamp": null, "name": "CSCOM de AMBA", "type": "clinic" }, "geometry": { "type": "Point", "coordinates": [ -2.97185, 14.79329 ] } },
{ "type": "Feature", "properties": { "osm_id": -2131128596.000000, "timestamp": null, "name": "CSCOM de AMBIDEDI POSTE", "type": "clinic" }, "geometry": { "type": "Point", "coordinates": [ -11.83108, 14.44057 ] } },
{ "type": "Feature", "properties": { "osm_id": -2131128591.000000, "timestamp": null, "name": "CSCOM de AMBIDEDI-KORE", "type": "clinic" }, "geometry": { "type": "Point", "coordinates": [ -11.75116, 14.7936 ] } },
{ "type": "Feature", "properties": { "osm_id": -2131128588.000000, "timestamp": null, "name": "CSCOM de AMBIRI", "type": "clinic" }, "geometry": { "type": "Point", "coordinates": [ -4.213, 15.5275 ] } },
{ "type": "Feature", "properties": { "osm_id": -2131128587.000000, "timestamp": null, "name": "CSCOM de AMBIRI-HABE", "type": "clinic" }, "geometry": { "type": "Point", "coordinates": [ -4.206833, 15.508833 ] } },
{ "type": "Feature", "properties": { "osm_id": -2131128586.000000, "timestamp": null, "name": "CSCOM de ANDERAMBOUKANE", "type": "clinic" }, "geometry": { "type": "Point", "coordinates": [ 3.38357, 15.79104 ] } },
{ "type": "Feature", "properties": { "osm_id": -2131128582.000000, "timestamp": null, "name": "CSCOM de ANDIAM", "type": "clinic" }, "geometry": { "type": "Point", "coordinates": [ -3.94919, 15.9418 ] } },
{ "type": "Feature", "properties": { "osm_id": -2131128577.000000, "timestamp": null, "name": "CSCOM de ANEFIF", "type": "clinic" }, "geometry": { "type": "Point", "coordinates": [ 0.87414, 18.23253 ] } },
{ "type": "Feature", "properties": { "osm_id": -2131128568.000000, "timestamp": null, "name": "CSCOM de ANOUZEGRENE", "type": "clinic" }, "geometry": { "type": "Point", "coordinates": [ 2.49717, 15.53711 ] } },
{ "type": "Feature", "properties": { "osm_id": -2131128563.000000, "timestamp": null, "name": "CSCOM de AOUROU", "type": "clinic" }, "geometry": { "type": "Point", "coordinates": [ -11.4955, 14.99123 ] } },
{ "type": "Feature", "properties": { "osm_id": -2131128558.000000, "timestamp": null, "name": "CSCOM de ARABEBE", "type": "clinic" }, "geometry": { "type": "Point", "coordinates": [ -3.801348, 16.082551 ] } },
{ "type": "Feature", "properties": { "osm_id": -2131128554.000000, "timestamp": null, "name": "CSCOM de ARHAM", "type": "clinic" }, "geometry": { "type": "Point", "coordinates": [ -3.379816, 16.379697 ] } },
{ "type": "Feature", "properties": { "osm_id": -2131128553.000000, "timestamp": null, "name": "CSCOM de AROUANE", "type": "clinic" }, "geometry": { "type": "Point", "coordinates": [ -3.525, 18.90417 ] } },
{ "type": "Feature", "properties": { "osm_id": -2131128552.000000, "timestamp": null, "name": "Centre de Santé Communautaire ASACO - San", "type": "clinic" }, "geometry": { "type": "Point", "coordinates": [ -7.8759, 12.69129 ] } },
{ "type": "Feature", "properties": { "osm_id": -2131128551.000000, "timestamp": null, "name": "Centre de Santé Communautaire de Banamba Ouest", "type": "clinic" }, "geometry": { "type": "Point", "coordinates": [ -7.441071, 13.54875 ] } },
{ "type": "Feature", "properties": { "osm_id": -2131128549.000000, "timestamp": null, "name": "CSCOM de ASACO KANER", "type": "clinic" }, "geometry": { "type": "Point", "coordinates": [ -8.000009, 12.550054 ] } },
{ "type": "Feature", "properties": { "osm_id": -2131128548.000000, "timestamp": null, "name": "CSCOM de ASACO LELENI", "type": "clinic" }, "geometry": { "type": "Point", "coordinates": [ -5.244722, 12.390833 ] } },
{ "type": "Feature", "properties": { "osm_id": -2131128537.000000, "timestamp": null, "name": "Centre de Santé Communautaire ASACODES", "type": "clinic" }, "geometry": { "type": "Point", "coordinates": [ -8.03245, 12.66283 ] } },
{ "type": "Feature", "properties": { "osm_id": -2131128527.000000, "timestamp": null, "name": "Centre de Santé Communautaire ASACOGA I", "type": "clinic" }, "geometry": { "type": "Point", "coordinates": [ -7.436802, 10.994354 ] } },
{ "type": "Feature", "properties": { "osm_id": -2131128525.000000, "timestamp": null, "name": "Centre de Santé Communautaire ASACOGO", "type": "clinic" }, "geometry": { "type": "Point", "coordinates": [ -8.00019, 12.683599 ] } },
{ "type": "Feature", "properties": { "osm_id": -2131128523.000000, "timestamp": null, "name": "CSCOM de ASACOHERE", "type": "clinic" }, "geometry": { "type": "Point", "coordinates": [ -7.927676, 12.315736 ] } },
{ "type": "Feature", "properties": { "osm_id": -2131128521.000000, "timestamp": null, "name": "CSCOM de ASACOKA", "type": "clinic" }, "geometry": { "type": "Point", "coordinates": [ -7.82432, 12.51719 ] } },
{ "type": "Feature", "properties": { "osm_id": -2131128511.000000, "timestamp": null, "name": "Centre de Santé Communautaire ASACOMA I", "type": "clinic" }, "geometry": { "type": "Point", "coordinates": [ -7.956154, 12.610464 ] } },
{ "type": "Feature", "properties": { "osm_id": -2131128503.000000, "timestamp": null, "name": "Centre de Santé Communautaire de Ouélesséboug", "type": "clinic" }, "geometry": { "type": "Point", "coordinates": [ -7.912934, 11.991556 ] } },
{ "type": "Feature", "properties": { "osm_id": -2131128496.000000, "timestamp": null, "name": "CSCOM de ASACOSIME", "type": "clinic" }, "geometry": { "type": "Point", "coordinates": [ -7.85851, 12.62568 ] } },
{ "type": "Feature", "properties": { "osm_id": -2131128489.000000, "timestamp": null, "name": "CSCOM de ASAKKOUL", "type": "clinic" }, "geometry": { "type": "Point", "coordinates": [ -8.016705, 12.550061 ] } },
{ "type": "Feature", "properties": { "osm_id": -2131128487.000000, "timestamp": null, "name": "Centre de Santé Communautaire d'Ascomka", "type": "clinic" }, "geometry": { "type": "Point", "coordinates": [ -7.96408, 12.72017 ] } },
{ "type": "Feature", "properties": { "osm_id": -2131128486.000000, "timestamp": null, "name": "CSCOM de ASCOTAMB", "type": "clinic" }, "geometry": { "type": "Point", "coordinates": [ -4.20992, 14.57205 ] } },
{ "type": "Feature", "properties": { "osm_id": -2131128485.000000, "timestamp": null, "name": "CSCOM de ASSEKHAT (ADEL - HOC)", "type": "clinic" }, "geometry": { "type": "Point", "coordinates": [ 0.73925, 19.09701 ] } },
{ "type": "Feature", "properties": { "osm_id": -2131128484.000000, "timestamp": null, "name": "CSCOM de ASSIDI", "type": "clinic" }, "geometry": { "type": "Point", "coordinates": [ -3.0158, 18.09329 ] } },
{ "type": "Feature", "properties": { "osm_id": -2131128483.000000, "timestamp": null, "name": "CSCOM de ATTARA", "type": "clinic" }, "geometry": { "type": "Point", "coordinates": [ -4.33661, 15.74868 ] } },
{ "type": "Feature", "properties": { "osm_id": -2131128482.000000, "timestamp": null, "name": "CSCOM de AWOINY", "type": "clinic" }, "geometry": { "type": "Point", "coordinates": [ -9.52366, 15.15438 ] } },
{ "type": "Feature", "properties": { "osm_id": -2131128481.000000, "timestamp": null, "name": "Centre de Santé Communautaire de Baala", "type": "clinic" }, "geometry": { "type": "Point", "coordinates": [ -8.03485, 12.2164 ] } },
{ "type": "Feature", "properties": { "osm_id": -2131128480.000000, "timestamp": null, "name": "CSCOM de BABOUGOU", "type": "clinic" }, "geometry": { "type": "Point", "coordinates": [ -5.67674, 13.78417 ] } },
{ "type": "Feature", "properties": { "osm_id": -2131128479.000000, "timestamp": null, "name": "Centre de Santé Communautaire de Badinko", "type": "clinic" }, "geometry": { "type": "Point", "coordinates": [ -9.11969, 13.10655 ] } },
{ "type": "Feature", "properties": { "osm_id": -2131128478.000000, "timestamp": null, "name": "Centre de Santé Communautaire de Badogo", "type": "clinic" }, "geometry": { "type": "Point", "coordinates": [ -8.215, 11.03 ] } },
{ "type": "Feature", "properties": { "osm_id": -2131128477.000000, "timestamp": null, "name": "CSCOM de BAFARARA", "type": "clinic" }, "geometry": { "type": "Point", "coordinates": [ -11.45445, 15.47479 ] } },
{ "type": "Feature", "properties": { "osm_id": -2131128476.000000, "timestamp": null, "name": "CSCOM de BAFOULABE CENTRAL", "type": "clinic" }, "geometry": { "type": "Point", "coordinates": [ -10.75875, 13.80095 ] } },
{ "type": "Feature", "properties": { "osm_id": -2131128475.000000, "timestamp": null, "name": "Centre de Santé Communautaire de Bagadadji Sud", "type": "clinic" }, "geometry": { "type": "Point", "coordinates": [ -6.270851, 13.427689 ] } },
{ "type": "Feature", "properties": { "osm_id": -2131128474.000000, "timestamp": null, "name": "CSCOM de BAGNADJI", "type": "clinic" }, "geometry": { "type": "Point", "coordinates": [ -0.14557, 16.6373 ] } },
{ "type": "Feature", "properties": { "osm_id": -2131128473.000000, "timestamp": null, "name": "CSCOM de BAGUINEDA", "type": "clinic" }, "geometry": { "type": "Point", "coordinates": [ -7.69019, 12.65298 ] } },
{ "type": "Feature", "properties": { "osm_id": -2131128472.000000, "timestamp": null, "name": "CSCOM de BAHONDO", "type": "clinic" }, "geometry": { "type": "Point", "coordinates": [ -1.435833, 16.985833 ] } },
{ "type": "Feature", "properties": { "osm_id": -2131128471.000000, "timestamp": null, "name": "Centre de Santé Communautaire de Balan-Bakama", "type": "clinic" }, "geometry": { "type": "Point", "coordinates": [ -8.85478, 12.23193 ] } },
{ "type": "Feature", "properties": { "osm_id": -2131128470.000000, "timestamp": null, "name": "CSCOM de BALANDOUGOU", "type": "clinic" }, "geometry": { "type": "Point", "coordinates": [ -9.85113, 13.29939 ] } },
{ "type": "Feature", "properties": { "osm_id": -2131128469.000000, "timestamp": null, "name": "Centre de Santé Communautaire de Balanfina", "type": "clinic" }, "geometry": { "type": "Point", "coordinates": [ -7.889801, 11.064209 ] } },
{ "type": "Feature", "properties": { "osm_id": -2131128468.000000, "timestamp": null, "name": "Centre de Santé Communautaire de Balea", "type": "clinic" }, "geometry": { "type": "Point", "coordinates": [ -9.964861, 12.223887 ] } },
{ "type": "Feature", "properties": { "osm_id": -2131128467.000000, "timestamp": null, "name": "CSCOM de BALLE ? Where?", "type": "clinic" }, "geometry": { "type": "Point", "coordinates": [ -8.373959, 15.201686 ] } },
{ "type": "Feature", "properties": { "osm_id": -2131128466.000000, "timestamp": null, "name": "CSCOM de BAMAFELE", "type": "clinic" }, "geometry": { "type": "Point", "coordinates": [ -10.50806, 13.26694 ] } },
{ "type": "Feature", "properties": { "osm_id": -2131128465.000000, "timestamp": null, "name": "CSCOM de BAMBA", "type": "clinic" }, "geometry": { "type": "Point", "coordinates": [ -7.12945, 10.42932 ] } },
{ "type": "Feature", "properties": { "osm_id": -2131128464.000000, "timestamp": null, "name": "CSCOM de BAMBA", "type": "clinic" }, "geometry": { "type": "Point", "coordinates": [ -3.112226, 14.647171 ] } },
{ "type": "Feature", "properties": { "osm_id": -2131128463.000000, "timestamp": null, "name": "CSCOM de BAMBA", "type": "clinic" }, "geometry": { "type": "Point", "coordinates": [ -1.17878, 17.41839 ] } },
{ "type": "Feature", "properties": { "osm_id": -2131128462.000000, "timestamp": null, "name": "CSCOM de BAMBARA MAOUDE", "type": "clinic" }, "geometry": { "type": "Point", "coordinates": [ -2.55951, 15.71267 ] } },
{ "type": "Feature", "properties": { "osm_id": -2131128461.000000, "timestamp": null, "name": "Centre de Santé Communautaire de Banamba Centra", "type": "clinic" }, "geometry": { "type": "Point", "coordinates": [ -7.446379, 13.548247 ] } },
{ "type": "Feature", "properties": { "osm_id": -2131128460.000000, "timestamp": null, "name": "CSCOM de BANANKORO", "type": "clinic" }, "geometry": { "type": "Point", "coordinates": [ -6.22426, 13.81386 ] } },
{ "type": "Feature", "properties": { "osm_id": -2131128459.000000, "timestamp": null, "name": "CSCOM de BANANSO", "type": "clinic" }, "geometry": { "type": "Point", "coordinates": [ -6.031111, 10.884167 ] } },
{ "type": "Feature", "properties": { "osm_id": -2131128458.000000, "timestamp": null, "name": "CSCOM de BANCO", "type": "clinic" }, "geometry": { "type": "Point", "coordinates": [ -6.4549, 12.01635 ] } },
{ "type": "Feature", "properties": { "osm_id": -2131128457.000000, "timestamp": null, "name": "Centre de Santé Communautaire de Bancoumana", "type": "clinic" }, "geometry": { "type": "Point", "coordinates": [ -8.269007, 12.202287 ] } },
{ "type": "Feature", "properties": { "osm_id": -2131128456.000000, "timestamp": null, "name": "CSCOM de BANDIAGARA CENTRAL", "type": "clinic" }, "geometry": { "type": "Point", "coordinates": [ -3.71993, 14.32521 ] } },
{ "type": "Feature", "properties": { "osm_id": -2131128455.000000, "timestamp": null, "name": "CSCOM de BANDIERESSO", "type": "clinic" }, "geometry": { "type": "Point", "coordinates": [ -5.30867, 11.40516 ] } },
{ "type": "Feature", "properties": { "osm_id": -2131128454.000000, "timestamp": null, "name": "CSCOM de BANDIOUGOULA", "type": "clinic" }, "geometry": { "type": "Point", "coordinates": [ -10.53021, 15.3118 ] } },
{ "type": "Feature", "properties": { "osm_id": -2131128453.000000, "timestamp": null, "name": "CSCOM de BANESSO", "type": "clinic" }, "geometry": { "type": "Point", "coordinates": [ -5.16744, 12.00799 ] } },
{ "type": "Feature", "properties": { "osm_id": -2131128452.000000, "timestamp": null, "name": "CSCOM de BANIERE KORE", "type": "clinic" }, "geometry": { "type": "Point", "coordinates": [ -9.00495, 15.26271 ] } },
{ "type": "Feature", "properties": { "osm_id": -2131128451.000000, "timestamp": null, "name": "CSCOM de BANIKANE NARHAWA", "type": "clinic" }, "geometry": { "type": "Point", "coordinates": [ -3.59234, 16.042869 ] } },
{ "type": "Feature", "properties": { "osm_id": -2131128450.000000, "timestamp": null, "name": "CSCOM de BANIKANE", "type": "clinic" }, "geometry": { "type": "Point", "coordinates": [ -1.67306, 16.82547 ] } },
{ "type": "Feature", "properties": { "osm_id": -2131128449.000000, "timestamp": null, "name": "Centre de Santé Communautaire de Banindo", "type": "clinic" }, "geometry": { "type": "Point", "coordinates": [ -6.840126, 12.873598 ] } },
{ "type": "Feature", "properties": { "osm_id": -2131128448.000000, "timestamp": null, "name": "CSCOM de BANKASS CENTRAL", "type": "clinic" }, "geometry": { "type": "Point", "coordinates": [ -3.47054, 14.02956 ] } },
{ "type": "Feature", "properties": { "osm_id": -2131128447.000000, "timestamp": null, "name": "CSCOM de BANZANA", "type": "clinic" }, "geometry": { "type": "Point", "coordinates": [ -7.2419, 10.54011 ] } },
{ "type": "Feature", "properties": { "osm_id": -2131128446.000000, "timestamp": null, "name": "CSCOM de BARA", "type": "clinic" }, "geometry": { "type": "Point", "coordinates": [ 0.37876, 15.8723 ] } },
{ "type": "Feature", "properties": { "osm_id": -2131128445.000000, "timestamp": null, "name": "CSCOM de BARAMANDOUGOU", "type": "clinic" }, "geometry": { "type": "Point", "coordinates": [ -4.6206, 13.55851 ] } },
{ "type": "Feature", "properties": { "osm_id": -2131128444.000000, "timestamp": null, "name": "CSCOM de BARAPIRELI", "type": "clinic" }, "geometry": { "type": "Point", "coordinates": [ -3.08411, 14.29905 ] } },
{ "type": "Feature", "properties": { "osm_id": -2131128443.000000, "timestamp": null, "name": "CSCOM de BARGOU", "type": "clinic" }, "geometry": { "type": "Point", "coordinates": [ -2.96756, 13.93973 ] } },
{ "type": "Feature", "properties": { "osm_id": -2131128442.000000, "timestamp": null, "name": "CSCOM de BARIA", "type": "clinic" }, "geometry": { "type": "Point", "coordinates": [ -0.295833, 16.878611 ] } },
{ "type": "Feature", "properties": { "osm_id": -2131128441.000000, "timestamp": null, "name": "CSCOM de BAROUELI CENTRAL", "type": "clinic" }, "geometry": { "type": "Point", "coordinates": [ -6.7534, 13.13281 ] } },
{ "type": "Feature", "properties": { "osm_id": -2131128440.000000, "timestamp": null, "name": "CSCOM de BATAMA", "type": "clinic" }, "geometry": { "type": "Point", "coordinates": [ -10.91159, 14.68835 ] } },
{ "type": "Feature", "properties": { "osm_id": -2131128439.000000, "timestamp": null, "name": "Centre de Santé Communautaire de Baye Kenieba", "type": "clinic" }, "geometry": { "type": "Point", "coordinates": [ -10.79416, 12.71072 ] } },
{ "type": "Feature", "properties": { "osm_id": -2131128438.000000, "timestamp": null, "name": "CSCOM de BAYE", "type": "clinic" }, "geometry": { "type": "Point", "coordinates": [ -3.38938, 13.64055 ] } },
{ "type": "Feature", "properties": { "osm_id": -2131128437.000000, "timestamp": null, "name": "CSCOM de BAZI GOURMA", "type": "clinic" }, "geometry": { "type": "Point", "coordinates": [ 0.20094, 15.53685 ] } },
{ "type": "Feature", "properties": { "osm_id": -2131128436.000000, "timestamp": null, "name": "CSCOM de BAZI HAOUSSA", "type": "clinic" }, "geometry": { "type": "Point", "coordinates": [ 0.46426, 15.69436 ] } },
{ "type": "Feature", "properties": { "osm_id": -2131128435.000000, "timestamp": null, "name": "CSCOM de BEDIATT", "type": "clinic" }, "geometry": { "type": "Point", "coordinates": [ -8.48377, 15.27129 ] } },
{ "type": "Feature", "properties": { "osm_id": -2131128434.000000, "timestamp": null, "name": "CSCOM de BELEKO SOBA", "type": "clinic" }, "geometry": { "type": "Point", "coordinates": [ -6.58811, 12.62813 ] } },
{ "type": "Feature", "properties": { "osm_id": -2131128433.000000, "timestamp": null, "name": "CSCOM de BELLAFARANDI", "type": "clinic" }, "geometry": { "type": "Point", "coordinates": [ -2.43288, 17.49199 ] } },
{ "type": "Feature", "properties": { "osm_id": -2131128432.000000, "timestamp": null, "name": "CSCOM de BEMA", "type": "clinic" }, "geometry": { "type": "Point", "coordinates": [ -9.28481, 15.02199 ] } },
{ "type": "Feature", "properties": { "osm_id": -2131128431.000000, "timestamp": null, "name": "CSCOM de BENDIELY", "type": "clinic" }, "geometry": { "type": "Point", "coordinates": [ -3.59523, 14.4293 ] } },
{ "type": "Feature", "properties": { "osm_id": -2131128430.000000, "timestamp": null, "name": "CSCOM de BENDOUGOU", "type": "clinic" }, "geometry": { "type": "Point", "coordinates": [ -10.23203, 14.50916 ] } },
{ "type": "Feature", "properties": { "osm_id": -2131128429.000000, "timestamp": null, "name": "Centre de Santé Communautaire de Bendougouba", "type": "clinic" }, "geometry": { "type": "Point", "coordinates": [ -9.39535, 13.056786 ] } },
{ "type": "Feature", "properties": { "osm_id": -2131128428.000000, "timestamp": null, "name": "Centre de Santé Communautaire de Beneko", "type": "clinic" }, "geometry": { "type": "Point", "coordinates": [ -7.6998, 12.01818 ] } },
{ "type": "Feature", "properties": { "osm_id": -2131128427.000000, "timestamp": null, "name": "CSCOM de BENENA", "type": "clinic" }, "geometry": { "type": "Point", "coordinates": [ -4.39676, 13.13258 ] } },
{ "type": "Feature", "properties": { "osm_id": -2131128425.000000, "timestamp": null, "name": "CSCOM de BENGUEL", "type": "clinic" }, "geometry": { "type": "Point", "coordinates": [ -2.01, 16.71 ] } },
{ "type": "Feature", "properties": { "osm_id": -2131128424.000000, "timestamp": null, "name": "CSCOM de BENGUENE", "type": "clinic" }, "geometry": { "type": "Point", "coordinates": [ -5.89256, 12.83513 ] } },
{ "type": "Feature", "properties": { "osm_id": -2131128423.000000, "timestamp": null, "name": "Centre de Santé Communautaire de Benkadi Founia", "type": "clinic" }, "geometry": { "type": "Point", "coordinates": [ -9.462135, 12.892637 ] } },
{ "type": "Feature", "properties": { "osm_id": -2131128421.000000, "timestamp": null, "name": "CSCOM de BENTIA", "type": "clinic" }, "geometry": { "type": "Point", "coordinates": [ 0.57102, 15.36846 ] } },
{ "type": "Feature", "properties": { "osm_id": -2131128420.000000, "timestamp": null, "name": "CSCOM de BER", "type": "clinic" }, "geometry": { "type": "Point", "coordinates": [ -1.5642, 18.32987 ] } },
{ "type": "Feature", "properties": { "osm_id": -2131128419.000000, "timestamp": null, "name": "CSCOM de BERRAH", "type": "clinic" }, "geometry": { "type": "Point", "coordinates": [ 0.24219, 16.59966 ] } },
{ "type": "Feature", "properties": { "osm_id": -2131128418.000000, "timestamp": null, "name": "CSCOM de BILADJIMI", "type": "clinic" }, "geometry": { "type": "Point", "coordinates": [ -10.67044, 15.35966 ] } },
{ "type": "Feature", "properties": { "osm_id": -2131128417.000000, "timestamp": null, "name": "CSCOM de BINEOU NIAKATE", "type": "clinic" }, "geometry": { "type": "Point", "coordinates": [ -8.52213, 15.40136 ] } },
{ "type": "Feature", "properties": { "osm_id": -2131128416.000000, "timestamp": null, "name": "Centre de Santé Communautaire de Binko", "type": "clinic" }, "geometry": { "type": "Point", "coordinates": [ -8.243, 11.64 ] } },
{ "type": "Feature", "properties": { "osm_id": -2131128415.000000, "timestamp": null, "name": "CSCOM de BINTAGOUNGOU", "type": "clinic" }, "geometry": { "type": "Point", "coordinates": [ -4.16336, 17.50356 ] } },
{ "type": "Feature", "properties": { "osm_id": -2131128414.000000, "timestamp": null, "name": "CSCOM de BLA CENTRAL", "type": "clinic" }, "geometry": { "type": "Point", "coordinates": [ -5.71822, 12.95178 ] } },
{ "type": "Feature", "properties": { "osm_id": -2131128413.000000, "timestamp": null, "name": "Centre de Santé Communautaire de Bladie-Tiemala", "type": "clinic" }, "geometry": { "type": "Point", "coordinates": [ -7.325515, 10.923245 ] } },
{ "type": "Feature", "properties": { "osm_id": -2131128412.000000, "timestamp": null, "name": "CSCOM de BLENDIO", "type": "clinic" }, "geometry": { "type": "Point", "coordinates": [ -6.30071, 11.59709 ] } },
{ "type": "Feature", "properties": { "osm_id": -2131128411.000000, "timestamp": null, "name": "CSCOM de BOBOLA ZANGASSO", "type": "clinic" }, "geometry": { "type": "Point", "coordinates": [ -4.99278, 12.54 ] } },
{ "type": "Feature", "properties": { "osm_id": -2131128410.000000, "timestamp": null, "name": "CSCOM de BOGONI", "type": "clinic" }, "geometry": { "type": "Point", "coordinates": [ -5.50772, 12.78117 ] } },
{ "type": "Feature", "properties": { "osm_id": -2131128409.000000, "timestamp": null, "name": "CSCOM de BOH", "type": "clinic" }, "geometry": { "type": "Point", "coordinates": [ -6.21305, 14.24241 ] } },
{ "type": "Feature", "properties": { "osm_id": -2131128408.000000, "timestamp": null, "name": "Centre de Santé Communautaire de Boidie", "type": "clinic" }, "geometry": { "type": "Point", "coordinates": [ -6.871499, 13.212354 ] } },
{ "type": "Feature", "properties": { "osm_id": -2131128407.000000, "timestamp": null, "name": "Centre de Santé Communautaire de Bole", "type": "clinic" }, "geometry": { "type": "Point", "coordinates": [ -6.94366, 12.025587 ] } },
{ "type": "Feature", "properties": { "osm_id": -2131128406.000000, "timestamp": null, "name": "CSCOM de BOLIBANA B6", "type": "clinic" }, "geometry": { "type": "Point", "coordinates": [ -5.73896, 14.58284 ] } },
{ "type": "Feature", "properties": { "osm_id": -2131128405.000000, "timestamp": null, "name": "CSCOM de BONGOSSO", "type": "clinic" }, "geometry": { "type": "Point", "coordinates": [ -5.21946, 12.44592 ] } },
{ "type": "Feature", "properties": { "osm_id": -2131128404.000000, "timestamp": null, "name": "CSCOM de BONGUEL", "type": "clinic" }, "geometry": { "type": "Point", "coordinates": [ -4.13551, 14.08684 ] } },
{ "type": "Feature", "properties": { "osm_id": -2131128403.000000, "timestamp": null, "name": "CSCOM de BONI", "type": "clinic" }, "geometry": { "type": "Point", "coordinates": [ -1.72766, 14.93013 ] } },
{ "type": "Feature", "properties": { "osm_id": -2131128401.000000, "timestamp": null, "name": "CSCOM de BORE", "type": "clinic" }, "geometry": { "type": "Point", "coordinates": [ -3.37587, 15.12101 ] } },
{ "type": "Feature", "properties": { "osm_id": -2131128400.000000, "timestamp": null, "name": "CSCOM de BORI", "type": "clinic" }, "geometry": { "type": "Point", "coordinates": [ -2.10739, 17.28767 ] } },
{ "type": "Feature", "properties": { "osm_id": -2131128399.000000, "timestamp": null, "name": "CSCOM de BORKO", "type": "clinic" }, "geometry": { "type": "Point", "coordinates": [ -3.30288, 14.94277 ] } },
{ "type": "Feature", "properties": { "osm_id": -2131128398.000000, "timestamp": null, "name": "CSCOM de BORON", "type": "clinic" }, "geometry": { "type": "Point", "coordinates": [ -7.38364, 14.03091 ] } },
{ "type": "Feature", "properties": { "osm_id": -2131128397.000000, "timestamp": null, "name": "CSCOM de BOUDJIGIRE", "type": "clinic" }, "geometry": { "type": "Point", "coordinates": [ -6.56509, 14.82914 ] } },
{ "type": "Feature", "properties": { "osm_id": -2131128396.000000, "timestamp": null, "name": "CSCOM de BOUDOFO", "type": "clinic" }, "geometry": { "type": "Point", "coordinates": [ -9.54984, 13.2471 ] } },
{ "type": "Feature", "properties": { "osm_id": -2131128395.000000, "timestamp": null, "name": "Centre de Santé Communautaire de Bougaribaya", "type": "clinic" }, "geometry": { "type": "Point", "coordinates": [ -9.845206, 12.81637 ] } },
{ "type": "Feature", "properties": { "osm_id": -2131128394.000000, "timestamp": null, "name": "CSCOM de BOUGOUCOURALA", "type": "clinic" }, "geometry": { "type": "Point", "coordinates": [ -6.36417, 12.38222 ] } },
{ "type": "Feature", "properties": { "osm_id": -2131128393.000000, "timestamp": null, "name": "CSCOM de BOUGOULA", "type": "clinic" }, "geometry": { "type": "Point", "coordinates": [ -6.87347, 10.72006 ] } },
{ "type": "Feature", "properties": { "osm_id": -2131128392.000000, "timestamp": null, "name": "Centre de Santé Communautaire de Bougouni Est", "type": "clinic" }, "geometry": { "type": "Point", "coordinates": [ -7.477416, 11.41122 ] } },
{ "type": "Feature", "properties": { "osm_id": -2131128391.000000, "timestamp": null, "name": "Centre de Santé Communautaire de Bougouni Ouest", "type": "clinic" }, "geometry": { "type": "Point", "coordinates": [ -7.491359, 11.414497 ] } },
{ "type": "Feature", "properties": { "osm_id": -2131128390.000000, "timestamp": null, "name": "Centre de Santé Communautaire de Bougouni Sud", "type": "clinic" }, "geometry": { "type": "Point", "coordinates": [ -7.480493, 11.403859 ] } },
{ "type": "Feature", "properties": { "osm_id": -2131128379.000000, "timestamp": null, "name": "CSCOM de BOUGOURA", "type": "clinic" }, "geometry": { "type": "Point", "coordinates": [ -5.28778, 12.97694 ] } },
{ "type": "Feature", "properties": { "osm_id": -2131128378.000000, "timestamp": null, "name": "CSCOM de BOULAL", "type": "clinic" }, "geometry": { "type": "Point", "coordinates": [ -7.982907, 15.115749 ] } },
{ "type": "Feature", "properties": { "osm_id": -2131128377.000000, "timestamp": null, "name": "CSCOM de BOULGOUNDIE", "type": "clinic" }, "geometry": { "type": "Point", "coordinates": [ 0.3292, 16.25908 ] } },
{ "type": "Feature", "properties": { "osm_id": -2131128376.000000, "timestamp": null, "name": "CSCOM de BOUNOUMBA", "type": "clinic" }, "geometry": { "type": "Point", "coordinates": [ -5.04667, 13.05167 ] } },
{ "type": "Feature", "properties": { "osm_id": -2131128373.000000, "timestamp": null, "name": "CSCOM de BOUNTINGUISSE", "type": "clinic" }, "geometry": { "type": "Point", "coordinates": [ -11.50862, 15.29553 ] } },
{ "type": "Feature", "properties": { "osm_id": -2131128372.000000, "timestamp": null, "name": "CSCOM de BOURA", "type": "clinic" }, "geometry": { "type": "Point", "coordinates": [ -4.56208, 12.40197 ] } },
{ "type": "Feature", "properties": { "osm_id": -2131128371.000000, "timestamp": null, "name": "CSCOM de BOUREM CENTRAL", "type": "clinic" }, "geometry": { "type": "Point", "coordinates": [ -0.31152, 16.91852 ] } },
{ "type": "Feature", "properties": { "osm_id": -2131128370.000000, "timestamp": null, "name": "CSCOM de BOUREM-SIDI-AMAR", "type": "clinic" }, "geometry": { "type": "Point", "coordinates": [ -3.29466, 16.44927 ] } },
{ "type": "Feature", "properties": { "osm_id": -2131128369.000000, "timestamp": null, "name": "CSCOM de BOUREMINALY", "type": "clinic" }, "geometry": { "type": "Point", "coordinates": [ -2.28753, 17.15814 ] } },
{ "type": "Feature", "properties": { "osm_id": -2131128368.000000, "timestamp": null, "name": "CSCOM de BOUSSIN", "type": "clinic" }, "geometry": { "type": "Point", "coordinates": [ -5.69612, 13.48694 ] } },
{ "type": "Feature", "properties": { "osm_id": -2131128367.000000, "timestamp": null, "name": "CSCOM de BOYA", "type": "clinic" }, "geometry": { "type": "Point", "coordinates": [ 0.28483, 15.89652 ] } },
{ "type": "Feature", "properties": { "osm_id": -2131128366.000000, "timestamp": null, "name": "CSCOM de BOYO", "type": "clinic" }, "geometry": { "type": "Point", "coordinates": [ -3.38352, 15.81149 ] } },
{ "type": "Feature", "properties": { "osm_id": -2131128365.000000, "timestamp": null, "name": "Centre de Santé Communautaire de Carriere", "type": "clinic" }, "geometry": { "type": "Point", "coordinates": [ -8.184485, 11.547829 ] } },
{ "type": "Feature", "properties": { "osm_id": -2131128364.000000, "timestamp": null, "name": "CSCOM de CELLAL-NATI", "type": "clinic" }, "geometry": { "type": "Point", "coordinates": [ -4.14201, 14.48094 ] } },
{ "type": "Feature", "properties": { "osm_id": -2131128363.000000, "timestamp": null, "name": "CSCOM de CHABARIA", "type": "clinic" }, "geometry": { "type": "Point", "coordinates": [ -0.50184, 16.99156 ] } },
{ "type": "Feature", "properties": { "osm_id": -2131128362.000000, "timestamp": null, "name": "CSCOM de CHATEAU", "type": "clinic" }, "geometry": { "type": "Point", "coordinates": [ 0.30226, 16.36623 ] } },
{ "type": "Feature", "properties": { "osm_id": -2131128361.000000, "timestamp": null, "name": "Centre de Santé Communautaire de Chola", "type": "clinic" }, "geometry": { "type": "Point", "coordinates": [ -7.545608, 13.390382 ] } },
{ "type": "Feature", "properties": { "osm_id": -2131128360.000000, "timestamp": null, "name": "CSCOM de CINZANA", "type": "clinic" }, "geometry": { "type": "Point", "coordinates": [ -5.93465, 13.28648 ] } },
{ "type": "Feature", "properties": { "osm_id": -2131128359.000000, "timestamp": null, "name": "CSCOM de COCODY", "type": "clinic" }, "geometry": { "type": "Point", "coordinates": [ -6.16097, 14.46989 ] } },
{ "type": "Feature", "properties": { "osm_id": -2131128358.000000, "timestamp": null, "name": "CSCOM de CSCOM K2", "type": "clinic" }, "geometry": { "type": "Point", "coordinates": [ -5.95015, 14.800221 ] } },
{ "type": "Feature", "properties": { "osm_id": -2131128357.000000, "timestamp": null, "name": "Centre de Santé Communautaire de Daban", "type": "clinic" }, "geometry": { "type": "Point", "coordinates": [ -8.309832, 13.22043 ] } },
{ "type": "Feature", "properties": { "osm_id": -2131128356.000000, "timestamp": null, "name": "Centre de Santé Communautaire de Dabia", "type": "clinic" }, "geometry": { "type": "Point", "coordinates": [ -11.137822, 12.669719 ] } },
{ "type": "Feature", "properties": { "osm_id": -2131128355.000000, "timestamp": null, "name": "Centre de Santé Communautaire de Daféla", "type": "clinic" }, "geometry": { "type": "Point", "coordinates": [ -9.398404, 12.968052 ] } },
{ "type": "Feature", "properties": { "osm_id": -2131128354.000000, "timestamp": null, "name": "CSCOM de DAGASSENOU", "type": "clinic" }, "geometry": { "type": "Point", "coordinates": [ -11.95798, 14.22332 ] } },
{ "type": "Feature", "properties": { "osm_id": -2131128353.000000, "timestamp": null, "name": "CSCOM de DAH", "type": "clinic" }, "geometry": { "type": "Point", "coordinates": [ -4.90293, 13.14953 ] } },
{ "type": "Feature", "properties": { "osm_id": -2131128352.000000, "timestamp": null, "name": "CSCOM de DALLAH", "type": "clinic" }, "geometry": { "type": "Point", "coordinates": [ -2.08898, 14.81915 ] } },
{ "type": "Feature", "properties": { "osm_id": -2131128351.000000, "timestamp": null, "name": "CSCOM de DALLE", "type": "clinic" }, "geometry": { "type": "Point", "coordinates": [ -5.53944, 11.04694 ] } },
{ "type": "Feature", "properties": { "osm_id": -2131128350.000000, "timestamp": null, "name": "CSCOM de DAMPHA DIARISSO", "type": "clinic" }, "geometry": { "type": "Point", "coordinates": [ -7.48123, 14.13415 ] } },
{ "type": "Feature", "properties": { "osm_id": -2131128349.000000, "timestamp": null, "name": "CSCOM de DANDERESSO", "type": "clinic" }, "geometry": { "type": "Point", "coordinates": [ -5.46698, 11.46763 ] } },
{ "type": "Feature", "properties": { "osm_id": -2131128348.000000, "timestamp": null, "name": "CSCOM de DANDOUGOU", "type": "clinic" }, "geometry": { "type": "Point", "coordinates": [ -6.50774, 12.69319 ] } },
{ "type": "Feature", "properties": { "osm_id": -2131128347.000000, "timestamp": null, "name": "Centre de Santé Communautaire de Dangassa", "type": "clinic" }, "geometry": { "type": "Point", "coordinates": [ -8.131303, 12.19346 ] } },
{ "type": "Feature", "properties": { "osm_id": -2131128346.000000, "timestamp": null, "name": "CSCOM de DANGATENE", "type": "clinic" }, "geometry": { "type": "Point", "coordinates": [ -2.93846, 14.1553 ] } },
{ "type": "Feature", "properties": { "osm_id": -2131128345.000000, "timestamp": null, "name": "CSCOM de DANGHA", "type": "clinic" }, "geometry": { "type": "Point", "coordinates": [ -3.15909, 16.51592 ] } },
{ "type": "Feature", "properties": { "osm_id": -2131128344.000000, "timestamp": null, "name": "Centre de Santé Communautaire de Darsalam", "type": "clinic" }, "geometry": { "type": "Point", "coordinates": [ -6.260063, 13.442841 ] } },
{ "type": "Feature", "properties": { "osm_id": -2131128343.000000, "timestamp": null, "name": "Centre de Santé Communautaire de Darsalam-Kita", "type": "clinic" }, "geometry": { "type": "Point", "coordinates": [ -9.489375, 13.039495 ] } },
{ "type": "Feature", "properties": { "osm_id": -2131128342.000000, "timestamp": null, "name": "CSCOM de DE", "type": "clinic" }, "geometry": { "type": "Point", "coordinates": [ -3.20956, 14.80785 ] } },
{ "type": "Feature", "properties": { "osm_id": -2131128341.000000, "timestamp": null, "name": "CSCOM de DEBELIN", "type": "clinic" }, "geometry": { "type": "Point", "coordinates": [ -7.05226, 11.61224 ] } },
{ "type": "Feature", "properties": { "osm_id": -2131128339.000000, "timestamp": null, "name": "CSCOM de DEBOMASSASSI", "type": "clinic" }, "geometry": { "type": "Point", "coordinates": [ -9.39486, 14.59703 ] } },
{ "type": "Feature", "properties": { "osm_id": -2131128337.000000, "timestamp": null, "name": "CSCOM de DEFINA", "type": "clinic" }, "geometry": { "type": "Point", "coordinates": [ -7.15809, 11.01028 ] } },
{ "type": "Feature", "properties": { "osm_id": -2131128333.000000, "timestamp": null, "name": "CSCOM de DEGNEKORO", "type": "clinic" }, "geometry": { "type": "Point", "coordinates": [ -6.64082, 12.28636 ] } },
{ "type": "Feature", "properties": { "osm_id": -2131128329.000000, "timestamp": null, "name": "CSCOM de DEMBELLA", "type": "clinic" }, "geometry": { "type": "Point", "coordinates": [ -5.48278, 11.48667 ] } },
{ "type": "Feature", "properties": { "osm_id": -2131128326.000000, "timestamp": null, "name": "CSCOM de DEMEKE", "type": "clinic" }, "geometry": { "type": "Point", "coordinates": [ -10.522631, 14.174271 ] } },
{ "type": "Feature", "properties": { "osm_id": -2131128323.000000, "timestamp": null, "name": "CSCOM de DIA", "type": "clinic" }, "geometry": { "type": "Point", "coordinates": [ -4.92403, 14.33279 ] } },
{ "type": "Feature", "properties": { "osm_id": -2131128319.000000, "timestamp": null, "name": "CSCOM de DIABALY", "type": "clinic" }, "geometry": { "type": "Point", "coordinates": [ -5.73375, 14.81659 ] } },
{ "type": "Feature", "properties": { "osm_id": -2131128315.000000, "timestamp": null, "name": "Centre de Santé Communautaire de Diabarou", "type": "clinic" }, "geometry": { "type": "Point", "coordinates": [ -11.096592, 12.628186 ] } },
{ "type": "Feature", "properties": { "osm_id": -2131128312.000000, "timestamp": null, "name": "CSCOM de DIABIGUE", "type": "clinic" }, "geometry": { "type": "Point", "coordinates": [ -9.14922, 15.08968 ] } },
{ "type": "Feature", "properties": { "osm_id": -2131128309.000000, "timestamp": null, "name": "CSCOM de DIAFARABE", "type": "clinic" }, "geometry": { "type": "Point", "coordinates": [ -5.00218, 14.09108 ] } },
{ "type": "Feature", "properties": { "osm_id": -2131128305.000000, "timestamp": null, "name": "Centre de Santé Communautaire de Diago", "type": "clinic" }, "geometry": { "type": "Point", "coordinates": [ -8.155885, 12.777793 ] } },
{ "type": "Feature", "properties": { "osm_id": -2131128302.000000, "timestamp": null, "name": "CSCOM de DIAKA", "type": "clinic" }, "geometry": { "type": "Point", "coordinates": [ -7.1104, 11.1743 ] } },
{ "type": "Feature", "properties": { "osm_id": -2131128298.000000, "timestamp": null, "name": "CSCOM de DIAKABA", "type": "clinic" }, "geometry": { "type": "Point", "coordinates": [ -10.4511, 13.44208 ] } },
{ "type": "Feature", "properties": { "osm_id": -2131128295.000000, "timestamp": null, "name": "CSCOM de DIAKITELA", "type": "clinic" }, "geometry": { "type": "Point", "coordinates": [ -10.89717, 13.92102 ] } },
{ "type": "Feature", "properties": { "osm_id": -2131128293.000000, "timestamp": null, "name": "CSCOM de DIAKIWERE", "type": "clinic" }, "geometry": { "type": "Point", "coordinates": [ -6.14725, 14.55665 ] } },
{ "type": "Feature", "properties": { "osm_id": -2131128292.000000, "timestamp": null, "name": "CSCOM de DIAKON", "type": "clinic" }, "geometry": { "type": "Point", "coordinates": [ -10.30439, 14.35547 ] } },
{ "type": "Feature", "properties": { "osm_id": -2131128291.000000, "timestamp": null, "name": "CSCOM de DIAKOUROUNA", "type": "clinic" }, "geometry": { "type": "Point", "coordinates": [ -5.12961, 12.91567 ] } },
{ "type": "Feature", "properties": { "osm_id": -2131128285.000000, "timestamp": null, "name": "CSCOM de DIALA KHASSO", "type": "clinic" }, "geometry": { "type": "Point", "coordinates": [ -11.40511, 14.57225 ] } },
{ "type": "Feature", "properties": { "osm_id": -2131128284.000000, "timestamp": null, "name": "CSCOM de DIALAFARA-KENIEBA", "type": "clinic" }, "geometry": { "type": "Point", "coordinates": [ -11.42024, 13.40736 ] } },
{ "type": "Feature", "properties": { "osm_id": -2131128282.000000, "timestamp": null, "name": "Centre de Santé Communautaire de Dialakoroba", "type": "clinic" }, "geometry": { "type": "Point", "coordinates": [ -7.925635, 12.26544 ] } },
{ "type": "Feature", "properties": { "osm_id": -2131128281.000000, "timestamp": null, "name": "Centre de Santé Communautaire de Dialakorodji", "type": "clinic" }, "geometry": { "type": "Point", "coordinates": [ -7.968729, 12.70867 ] } },
{ "type": "Feature", "properties": { "osm_id": -2131128280.000000, "timestamp": null, "name": "CSCOM de DIALLAN", "type": "clinic" }, "geometry": { "type": "Point", "coordinates": [ -10.18191, 14.17337 ] } },
{ "type": "Feature", "properties": { "osm_id": -2131128279.000000, "timestamp": null, "name": "CSCOM de DIALLANE", "type": "clinic" }, "geometry": { "type": "Point", "coordinates": [ -11.91684, 14.51826 ] } },
{ "type": "Feature", "properties": { "osm_id": -2131128278.000000, "timestamp": null, "name": "CSCOM de DIALLASSAGOU (ASACODA)", "type": "clinic" }, "geometry": { "type": "Point", "coordinates": [ -3.59705, 13.71534 ] } },
{ "type": "Feature", "properties": { "osm_id": -2131128276.000000, "timestamp": null, "name": "CSCOM de DIALLAYE", "type": "clinic" }, "geometry": { "type": "Point", "coordinates": [ -3.52297, 13.65442 ] } },
{ "type": "Feature", "properties": { "osm_id": -2131128272.000000, "timestamp": null, "name": "CSCOM de DIALLOUBE", "type": "clinic" }, "geometry": { "type": "Point", "coordinates": [ -4.15914, 15.04898 ] } },
{ "type": "Feature", "properties": { "osm_id": -2131128267.000000, "timestamp": null, "name": "CSCOM de DIAMAKAN", "type": "clinic" }, "geometry": { "type": "Point", "coordinates": [ -4.10676, 13.61641 ] } },
{ "type": "Feature", "properties": { "osm_id": -2131128262.000000, "timestamp": null, "name": "CSCOM de DIAMARABOUGOU", "type": "clinic" }, "geometry": { "type": "Point", "coordinates": [ -6.076376, 13.675671 ] } },
{ "type": "Feature", "properties": { "osm_id": -2131128260.000000, "timestamp": null, "name": "CSCOM de DIAMBACOUROU", "type": "clinic" }, "geometry": { "type": "Point", "coordinates": [ -3.96767, 14.86147 ] } },
{ "type": "Feature", "properties": { "osm_id": -2131128257.000000, "timestamp": null, "name": "CSCOM de DIAMOU", "type": "clinic" }, "geometry": { "type": "Point", "coordinates": [ -11.16786, 13.99455 ] } },
{ "type": "Feature", "properties": { "osm_id": -2131128253.000000, "timestamp": null, "name": "CSCOM de DIAMWELY-MAOUNDE", "type": "clinic" }, "geometry": { "type": "Point", "coordinates": [ -2.17061, 14.68123 ] } },
{ "type": "Feature", "properties": { "osm_id": -2131128249.000000, "timestamp": null, "name": "CSCOM de DIANGASSAGOU", "type": "clinic" }, "geometry": { "type": "Point", "coordinates": [ -3.99284, 13.98034 ] } },
{ "type": "Feature", "properties": { "osm_id": -2131128248.000000, "timestamp": null, "name": "CSCOM de DIANGOUNTE CAMARA", "type": "clinic" }, "geometry": { "type": "Point", "coordinates": [ -9.53606, 14.67572 ] } },
{ "type": "Feature", "properties": { "osm_id": -2131128240.000000, "timestamp": null, "name": "CSCOM de DIANGUIRDE", "type": "clinic" }, "geometry": { "type": "Point", "coordinates": [ -8.9993, 14.3201 ] } },
{ "type": "Feature", "properties": { "osm_id": -2131128235.000000, "timestamp": null, "name": "CSCOM de DIANKABOU", "type": "clinic" }, "geometry": { "type": "Point", "coordinates": [ -2.98592, 14.56078 ] } },
{ "type": "Feature", "properties": { "osm_id": -2131128232.000000, "timestamp": null, "name": "CSCOM de DIANKE", "type": "clinic" }, "geometry": { "type": "Point", "coordinates": [ -4.61018, 15.78445 ] } },
{ "type": "Feature", "properties": { "osm_id": -2131128229.000000, "timestamp": null, "name": "CSCOM de DIANWELY COUNDA", "type": "clinic" }, "geometry": { "type": "Point", "coordinates": [ -9.70062, 15.12581 ] } },
{ "type": "Feature", "properties": { "osm_id": -2131128228.000000, "timestamp": null, "name": "CSCOM de DIARAMANA", "type": "clinic" }, "geometry": { "type": "Point", "coordinates": [ -5.33917, 12.8433 ] } },
{ "type": "Feature", "properties": { "osm_id": -2131128227.000000, "timestamp": null, "name": "CSCOM de DIARRAH", "type": "clinic" }, "geometry": { "type": "Point", "coordinates": [ -9.19686, 15.34293 ] } },
{ "type": "Feature", "properties": { "osm_id": -2131128226.000000, "timestamp": null, "name": "CSCOM de DIAYE KOURA", "type": "clinic" }, "geometry": { "type": "Point", "coordinates": [ -10.0888, 15.15302 ] } },
{ "type": "Feature", "properties": { "osm_id": -2131128225.000000, "timestamp": null, "name": "CSCOM de DIBAN", "type": "clinic" }, "geometry": { "type": "Point", "coordinates": [ -7.29328, 11.96616 ] } },
{ "type": "Feature", "properties": { "osm_id": -2131128224.000000, "timestamp": null, "name": "CSCOM de DIBOLI", "type": "clinic" }, "geometry": { "type": "Point", "coordinates": [ -12.06613, 14.38827 ] } },
{ "type": "Feature", "properties": { "osm_id": -2131128223.000000, "timestamp": null, "name": "CSCOM de DIDIENI", "type": "clinic" }, "geometry": { "type": "Point", "coordinates": [ -8.27569, 13.88482 ] } },
{ "type": "Feature", "properties": { "osm_id": -2131128222.000000, "timestamp": null, "name": "CSCOM de DIEBE", "type": "clinic" }, "geometry": { "type": "Point", "coordinates": [ -6.59074, 12.58722 ] } },
{ "type": "Feature", "properties": { "osm_id": -2131128221.000000, "timestamp": null, "name": "CSCOM de DIEDALA", "type": "clinic" }, "geometry": { "type": "Point", "coordinates": [ -5.5967, 13.00575 ] } },
{ "type": "Feature", "properties": { "osm_id": -2131128220.000000, "timestamp": null, "name": "CSCOM de DIEDOUGOU", "type": "clinic" }, "geometry": { "type": "Point", "coordinates": [ -6.05494, 12.37222 ] } },
{ "type": "Feature", "properties": { "osm_id": -2131128219.000000, "timestamp": null, "name": "CSCOM de DIEDOUGOU", "type": "clinic" }, "geometry": { "type": "Point", "coordinates": [ -6.34598, 12.44905 ] } },
{ "type": "Feature", "properties": { "osm_id": -2131128218.000000, "timestamp": null, "name": "CSCOM de DIELI", "type": "clinic" }, "geometry": { "type": "Point", "coordinates": [ -5.118, 13.00952 ] } },
{ "type": "Feature", "properties": { "osm_id": -2131128217.000000, "timestamp": null, "name": "CSCOM de Diéma CENTRAL", "type": "clinic" }, "geometry": { "type": "Point", "coordinates": [ -9.183388, 14.533333 ] } },
{ "type": "Feature", "properties": { "osm_id": -2131128216.000000, "timestamp": null, "name": "CSCOM de DIENA", "type": "clinic" }, "geometry": { "type": "Point", "coordinates": [ -5.96292, 13.10027 ] } },
{ "type": "Feature", "properties": { "osm_id": -2131128215.000000, "timestamp": null, "name": "CSCOM de DIEOURA", "type": "clinic" }, "geometry": { "type": "Point", "coordinates": [ -9.80264, 14.39008 ] } },
{ "type": "Feature", "properties": { "osm_id": -2131128214.000000, "timestamp": null, "name": "Centre de Santé Communautaire de Digan", "type": "clinic" }, "geometry": { "type": "Point", "coordinates": [ -7.775152, 12.127349 ] } },
{ "type": "Feature", "properties": { "osm_id": -2131128213.000000, "timestamp": null, "name": "CSCOM de DIGAN", "type": "clinic" }, "geometry": { "type": "Point", "coordinates": [ -8.0306, 14.54816 ] } },
{ "type": "Feature", "properties": { "osm_id": -2131128211.000000, "timestamp": null, "name": "CSCOM de DIGUICIRE", "type": "clinic" }, "geometry": { "type": "Point", "coordinates": [ -5.12987, 14.59952 ] } },
{ "type": "Feature", "properties": { "osm_id": -2131128207.000000, "timestamp": null, "name": "CSCOM de DILLY", "type": "clinic" }, "geometry": { "type": "Point", "coordinates": [ -7.20706, 14.79008 ] } },
{ "type": "Feature", "properties": { "osm_id": -2131128202.000000, "timestamp": null, "name": "CSCOM de DIMBAL", "type": "clinic" }, "geometry": { "type": "Point", "coordinates": [ -3.60754, 13.99618 ] } },
{ "type": "Feature", "properties": { "osm_id": -2131128199.000000, "timestamp": null, "name": "CSCOM de DINAGOUROU", "type": "clinic" }, "geometry": { "type": "Point", "coordinates": [ -2.17311, 14.51303 ] } },
{ "type": "Feature", "properties": { "osm_id": -2131128198.000000, "timestamp": null, "name": "Centre de Santé Communautaire de Dio Gare", "type": "clinic" }, "geometry": { "type": "Point", "coordinates": [ -8.243051, 12.801264 ] } },
{ "type": "Feature", "properties": { "osm_id": -2131128197.000000, "timestamp": null, "name": "Centre de Santé Communautaire de Dioila Central", "type": "clinic" }, "geometry": { "type": "Point", "coordinates": [ -6.79435, 12.48103 ] } },
{ "type": "Feature", "properties": { "osm_id": -2131128196.000000, "timestamp": null, "name": "CSCOM de DIOKELI", "type": "clinic" }, "geometry": { "type": "Point", "coordinates": [ -10.40769, 13.64108 ] } },
{ "type": "Feature", "properties": { "osm_id": -2131128195.000000, "timestamp": null, "name": "CSCOM de DIOMATENE", "type": "clinic" }, "geometry": { "type": "Point", "coordinates": [ -6.44944, 11.72833 ] } },
{ "type": "Feature", "properties": { "osm_id": -2131128188.000000, "timestamp": null, "name": "CSCOM de DIONCOULANE", "type": "clinic" }, "geometry": { "type": "Point", "coordinates": [ -10.5791, 15.17255 ] } },
{ "type": "Feature", "properties": { "osm_id": -2131128183.000000, "timestamp": null, "name": "CSCOM de DIONDIORI", "type": "clinic" }, "geometry": { "type": "Point", "coordinates": [ -4.78934, 14.69388 ] } },
{ "type": "Feature", "properties": { "osm_id": -2131128181.000000, "timestamp": null, "name": "CSCOM de DIONGAGA", "type": "clinic" }, "geometry": { "type": "Point", "coordinates": [ -10.97199, 15.14019 ] } },
{ "type": "Feature", "properties": { "osm_id": -2131128180.000000, "timestamp": null, "name": "CSCOM de DIORA", "type": "clinic" }, "geometry": { "type": "Point", "coordinates": [ -4.67626, 12.91541 ] } },
{ "type": "Feature", "properties": { "osm_id": -2131128179.000000, "timestamp": null, "name": "CSCOM de DIORO", "type": "clinic" }, "geometry": { "type": "Point", "coordinates": [ -5.822376, 13.694016 ] } },
{ "type": "Feature", "properties": { "osm_id": -2131128178.000000, "timestamp": null, "name": "CSCOM de DIOU", "type": "clinic" }, "geometry": { "type": "Point", "coordinates": [ -5.978611, 10.586944 ] } },
{ "type": "Feature", "properties": { "osm_id": -2131128177.000000, "timestamp": null, "name": "CSCOM de DIOULABOUGOU - NIAFUNKE", "type": "clinic" }, "geometry": { "type": "Point", "coordinates": [ -4.05154, 16.0245 ] } },
{ "type": "Feature", "properties": { "osm_id": -2131128171.000000, "timestamp": null, "name": "CSCOM de DIOUMARA", "type": "clinic" }, "geometry": { "type": "Point", "coordinates": [ -8.66304, 14.635 ] } },
{ "type": "Feature", "properties": { "osm_id": -2131128170.000000, "timestamp": null, "name": "CSCOM de DIOUMATENE", "type": "clinic" }, "geometry": { "type": "Point", "coordinates": [ -5.90747, 10.53165 ] } },
{ "type": "Feature", "properties": { "osm_id": -2131128169.000000, "timestamp": null, "name": "CSCOM de DIOUNA", "type": "clinic" }, "geometry": { "type": "Point", "coordinates": [ -6.18651, 13.57415 ] } },
{ "type": "Feature", "properties": { "osm_id": -2131128168.000000, "timestamp": null, "name": "CSCOM de DIOUNGANI", "type": "clinic" }, "geometry": { "type": "Point", "coordinates": [ -2.71851, 14.27723 ] } },
{ "type": "Feature", "properties": { "osm_id": -2131128167.000000, "timestamp": null, "name": "CSCOM de DIOUNGOUNTE", "type": "clinic" }, "geometry": { "type": "Point", "coordinates": [ -10.0443, 13.92639 ] } },
{ "type": "Feature", "properties": { "osm_id": -2131128166.000000, "timestamp": null, "name": "CSCOM de DIOURA", "type": "clinic" }, "geometry": { "type": "Point", "coordinates": [ -5.17079, 14.90729 ] } },
{ "type": "Feature", "properties": { "osm_id": -2131128165.000000, "timestamp": null, "name": "CSCOM de DIRE CENTRAL", "type": "clinic" }, "geometry": { "type": "Point", "coordinates": [ -3.48333, 16.27626 ] } },
{ "type": "Feature", "properties": { "osm_id": -2131128164.000000, "timestamp": null, "name": "Centre de Santé Communautaire de Dittin", "type": "clinic" }, "geometry": { "type": "Point", "coordinates": [ -10.648013, 12.076853 ] } },
{ "type": "Feature", "properties": { "osm_id": -2131128163.000000, "timestamp": null, "name": "CSCOM de DJEBALA", "type": "clinic" }, "geometry": { "type": "Point", "coordinates": [ -5.11194, 13.47569 ] } },
{ "type": "Feature", "properties": { "osm_id": -2131128162.000000, "timestamp": null, "name": "CSCOM de DJEBOCK", "type": "clinic" }, "geometry": { "type": "Point", "coordinates": [ 0.77922, 16.46728 ] } },
{ "type": "Feature", "properties": { "osm_id": -2131128161.000000, "timestamp": null, "name": "CSCOM de DJEGUENA", "type": "clinic" }, "geometry": { "type": "Point", "coordinates": [ -5.15745, 13.20126 ] } },
{ "type": "Feature", "properties": { "osm_id": -2131128160.000000, "timestamp": null, "name": "Centre de Santé Communautaire de Djele", "type": "clinic" }, "geometry": { "type": "Point", "coordinates": [ -7.36188, 12.27361 ] } },
{ "type": "Feature", "properties": { "osm_id": -2131128159.000000, "timestamp": null, "name": "CSCOM de DJENNE CENTRAL", "type": "clinic" }, "geometry": { "type": "Point", "coordinates": [ -4.55807, 13.84442 ] } },
{ "type": "Feature", "properties": { "osm_id": -2131128158.000000, "timestamp": null, "name": "CSCOM de DJIBOUGOU", "type": "clinic" }, "geometry": { "type": "Point", "coordinates": [ -6.00571, 13.61244 ] } },
{ "type": "Feature", "properties": { "osm_id": -2131128157.000000, "timestamp": null, "name": "CSCOM de DJIDIAN", "type": "clinic" }, "geometry": { "type": "Point", "coordinates": [ -9.6114, 13.40824 ] } },
{ "type": "Feature", "properties": { "osm_id": -2131128156.000000, "timestamp": null, "name": "CSCOM de DJIGUE", "type": "clinic" }, "geometry": { "type": "Point", "coordinates": [ -7.616, 14.60462 ] } },
{ "type": "Feature", "properties": { "osm_id": -2131128155.000000, "timestamp": null, "name": "Centre de Santé Communautaire de Djiné", "type": "clinic" }, "geometry": { "type": "Point", "coordinates": [ -7.391027, 11.137928 ] } },
{ "type": "Feature", "properties": { "osm_id": -2131128154.000000, "timestamp": null, "name": "CSCOM de DJINGUILOU", "type": "clinic" }, "geometry": { "type": "Point", "coordinates": [ -11.03964, 14.23767 ] } },
{ "type": "Feature", "properties": { "osm_id": -2131128153.000000, "timestamp": null, "name": "CSCOM de DJITAMANA", "type": "clinic" }, "geometry": { "type": "Point", "coordinates": [ -5.630556, 12.258333 ] } },
{ "type": "Feature", "properties": { "osm_id": -2131128152.000000, "timestamp": null, "name": "Centre de Santé Communautaire de Djoliba", "type": "clinic" }, "geometry": { "type": "Point", "coordinates": [ -8.16327, 12.39935 ] } },
{ "type": "Feature", "properties": { "osm_id": -2131128151.000000, "timestamp": null, "name": "CSCOM de DJOUGOUN", "type": "clinic" }, "geometry": { "type": "Point", "coordinates": [ -9.85474, 14.16149 ] } },
{ "type": "Feature", "properties": { "osm_id": -2131128150.000000, "timestamp": null, "name": "Centre de Santé Communautaire de Djoumazana", "type": "clinic" }, "geometry": { "type": "Point", "coordinates": [ -7.30281, 12.604647 ] } },
{ "type": "Feature", "properties": { "osm_id": -2131128149.000000, "timestamp": null, "name": "CSCOM de DOFANA", "type": "clinic" }, "geometry": { "type": "Point", "coordinates": [ -4.52848, 15.87879 ] } },
{ "type": "Feature", "properties": { "osm_id": -2131128148.000000, "timestamp": null, "name": "CSCOM de DOGANI - BERE", "type": "clinic" }, "geometry": { "type": "Point", "coordinates": [ -3.35111, 14.86347 ] } },
{ "type": "Feature", "properties": { "osm_id": -2131128147.000000, "timestamp": null, "name": "CSCOM de DOGO", "type": "clinic" }, "geometry": { "type": "Point", "coordinates": [ -4.424333, 15.167833 ] } },
{ "type": "Feature", "properties": { "osm_id": -2131128146.000000, "timestamp": null, "name": "CSCOM de DOGO-BOUGOUNI", "type": "clinic" }, "geometry": { "type": "Point", "coordinates": [ -7.32364, 11.90495 ] } },
{ "type": "Feature", "properties": { "osm_id": -2131128145.000000, "timestamp": null, "name": "CSCOM de DOGODOUMA", "type": "clinic" }, "geometry": { "type": "Point", "coordinates": [ -8.02262, 12.53254 ] } },
{ "type": "Feature", "properties": { "osm_id": -2131128144.000000, "timestamp": null, "name": "CSCOM de DOGOFRI", "type": "clinic" }, "geometry": { "type": "Point", "coordinates": [ -10.90707, 14.97995 ] } },
{ "type": "Feature", "properties": { "osm_id": -2131128143.000000, "timestamp": null, "name": "CSCOM de DOGOFRY", "type": "clinic" }, "geometry": { "type": "Point", "coordinates": [ -5.84653, 14.89594 ] } },
{ "type": "Feature", "properties": { "osm_id": -2131128142.000000, "timestamp": null, "name": "CSCOM de DOGONI", "type": "clinic" }, "geometry": { "type": "Point", "coordinates": [ -5.91302, 12.14784 ] } },
{ "type": "Feature", "properties": { "osm_id": -2131128141.000000, "timestamp": null, "name": "CSCOM de DOLENDOUGOU", "type": "clinic" }, "geometry": { "type": "Point", "coordinates": [ -6.47427, 12.58631 ] } },
{ "type": "Feature", "properties": { "osm_id": -2131128139.000000, "timestamp": null, "name": "CSCOM de DOMBA", "type": "clinic" }, "geometry": { "type": "Point", "coordinates": [ -6.87991, 11.74572 ] } },
{ "type": "Feature", "properties": { "osm_id": -2131128136.000000, "timestamp": null, "name": "Centre de Santé Communautaire de Dombia", "type": "clinic" }, "geometry": { "type": "Point", "coordinates": [ -11.05063, 12.780307 ] } },
{ "type": "Feature", "properties": { "osm_id": -2131128133.000000, "timestamp": null, "name": "Centre de Santé Communautaire de Dombila", "type": "clinic" }, "geometry": { "type": "Point", "coordinates": [ -8.276477, 12.760214 ] } },
{ "type": "Feature", "properties": { "osm_id": -2131128132.000000, "timestamp": null, "name": "Centre de Santé Communautaire de Dotembougou", "type": "clinic" }, "geometry": { "type": "Point", "coordinates": [ -6.795115, 13.210263 ] } },
{ "type": "Feature", "properties": { "osm_id": -2131128131.000000, "timestamp": null, "name": "CSCOM de DOUALE", "type": "clinic" }, "geometry": { "type": "Point", "coordinates": [ -10.53209, 14.34185 ] } },
{ "type": "Feature", "properties": { "osm_id": -2131128125.000000, "timestamp": null, "name": "Centre de Santé Communautaire de Doubabougou Ka", "type": "clinic" }, "geometry": { "type": "Point", "coordinates": [ -8.181827, 12.707469 ] } },
{ "type": "Feature", "properties": { "osm_id": -2131128124.000000, "timestamp": null, "name": "CSCOM de DOUBABOUGOU", "type": "clinic" }, "geometry": { "type": "Point", "coordinates": [ -7.91647, 14.14233 ] } },
{ "type": "Feature", "properties": { "osm_id": -2131128123.000000, "timestamp": null, "name": "CSCOM de DOUEKIRE", "type": "clinic" }, "geometry": { "type": "Point", "coordinates": [ -3.372082, 16.574629 ] } },
{ "type": "Feature", "properties": { "osm_id": -2131128122.000000, "timestamp": null, "name": "CSCOM de DOUENTZA CENTRAL", "type": "clinic" }, "geometry": { "type": "Point", "coordinates": [ -2.59361, 15.10392 ] } },
{ "type": "Feature", "properties": { "osm_id": -2131128121.000000, "timestamp": null, "name": "CSCOM de DOUGABOUGOU", "type": "clinic" }, "geometry": { "type": "Point", "coordinates": [ -5.89823, 13.77027 ] } },
{ "type": "Feature", "properties": { "osm_id": -2131128120.000000, "timestamp": null, "name": "CSCOM de DOUGOUBA", "type": "clinic" }, "geometry": { "type": "Point", "coordinates": [ -5.94442, 14.84463 ] } },
{ "type": "Feature", "properties": { "osm_id": -2131128119.000000, "timestamp": null, "name": "Centre de Santé Communautaire de Dougoufe", "type": "clinic" }, "geometry": { "type": "Point", "coordinates": [ -6.630006, 13.316273 ] } },
{ "type": "Feature", "properties": { "osm_id": -2131128118.000000, "timestamp": null, "name": "CSCOM de DOUGOUKOLOBOUGOU", "type": "clinic" }, "geometry": { "type": "Point", "coordinates": [ -5.64222, 11.43417 ] } },
{ "type": "Feature", "properties": { "osm_id": -2131128117.000000, "timestamp": null, "name": "CSCOM de DOUGOUOLO", "type": "clinic" }, "geometry": { "type": "Point", "coordinates": [ -5.57697, 12.91339 ] } },
{ "type": "Feature", "properties": { "osm_id": -2131128116.000000, "timestamp": null, "name": "CSCOM de DOUMANABA", "type": "clinic" }, "geometry": { "type": "Point", "coordinates": [ -6.49306, 11.44611 ] } },
{ "type": "Feature", "properties": { "osm_id": -2131128115.000000, "timestamp": null, "name": "CSCOM de DOUMANANI", "type": "clinic" }, "geometry": { "type": "Point", "coordinates": [ -5.93278, 11.66917 ] } },
{ "type": "Feature", "properties": { "osm_id": -2131128114.000000, "timestamp": null, "name": "Centre de Santé Communautaire de Doumba", "type": "clinic" }, "geometry": { "type": "Point", "coordinates": [ -7.610184, 13.103219 ] } },
{ "type": "Feature", "properties": { "osm_id": -2131128113.000000, "timestamp": null, "name": "CSCOM de DOUNA", "type": "clinic" }, "geometry": { "type": "Point", "coordinates": [ -4.78676, 12.04942 ] } },
{ "type": "Feature", "properties": { "osm_id": -2131128112.000000, "timestamp": null, "name": "CSCOM de DOUNDE", "type": "clinic" }, "geometry": { "type": "Point", "coordinates": [ -3.71423, 13.99889 ] } },
{ "type": "Feature", "properties": { "osm_id": -2131128111.000000, "timestamp": null, "name": "CSCOM de DOURA", "type": "clinic" }, "geometry": { "type": "Point", "coordinates": [ -6.01482, 13.68871 ] } },
{ "type": "Feature", "properties": { "osm_id": -2131128110.000000, "timestamp": null, "name": "CSCOM de DOURA", "type": "clinic" }, "geometry": { "type": "Point", "coordinates": [ -6.2075, 13.928889 ] } },
{ "type": "Feature", "properties": { "osm_id": -2131128109.000000, "timestamp": null, "name": "CSCOM de DOUROU", "type": "clinic" }, "geometry": { "type": "Point", "coordinates": [ -3.55543, 14.26424 ] } },
{ "type": "Feature", "properties": { "osm_id": -2131128108.000000, "timestamp": null, "name": "Centre de Santé Communautaire de Doussoudiana", "type": "clinic" }, "geometry": { "type": "Point", "coordinates": [ -7.805981, 11.150349 ] } },
{ "type": "Feature", "properties": { "osm_id": -2131128107.000000, "timestamp": null, "name": "CSCOM de Dramané", "type": "clinic" }, "geometry": { "type": "Point", "coordinates": [ -11.90278, 14.61694 ] } },
{ "type": "Feature", "properties": { "osm_id": -2131128106.000000, "timestamp": null, "name": "CSCOM de ECHELL", "type": "clinic" }, "geometry": { "type": "Point", "coordinates": [ -3.94074, 16.270609 ] } },
{ "type": "Feature", "properties": { "osm_id": -2131128105.000000, "timestamp": null, "name": "CSCOM de ENDE", "type": "clinic" }, "geometry": { "type": "Point", "coordinates": [ -3.50151, 14.16353 ] } },
{ "type": "Feature", "properties": { "osm_id": -2131128102.000000, "timestamp": null, "name": "CSCOM de ERINTEDJEFT", "type": "clinic" }, "geometry": { "type": "Point", "coordinates": [ -2.14187, 18.69814 ] } },
{ "type": "Feature", "properties": { "osm_id": -2131128098.000000, "timestamp": null, "name": "CSCOM de ERSANE", "type": "clinic" }, "geometry": { "type": "Point", "coordinates": [ -0.42667, 18.506 ] } },
{ "type": "Feature", "properties": { "osm_id": -2131128097.000000, "timestamp": null, "name": "CSCOM de ESSAKANE", "type": "clinic" }, "geometry": { "type": "Point", "coordinates": [ -3.82695, 17.6658 ] } },
{ "type": "Feature", "properties": { "osm_id": -2131128096.000000, "timestamp": null, "name": "CSCOM de ESSOUK", "type": "clinic" }, "geometry": { "type": "Point", "coordinates": [ 1.41429, 19.02795 ] } },
{ "type": "Feature", "properties": { "osm_id": -2131128095.000000, "timestamp": null, "name": "CSCOM de ETAMBAR", "type": "clinic" }, "geometry": { "type": "Point", "coordinates": [ 1.399761, 18.451523 ] } },
{ "type": "Feature", "properties": { "osm_id": -2131128094.000000, "timestamp": null, "name": "CSCOM de FAKOLA", "type": "clinic" }, "geometry": { "type": "Point", "coordinates": [ -6.92895, 10.49719 ] } },
{ "type": "Feature", "properties": { "osm_id": -2131128093.000000, "timestamp": null, "name": "Centre de Santé Communautaire de Faladié", "type": "clinic" }, "geometry": { "type": "Point", "coordinates": [ -8.338187, 13.135816 ] } },
{ "type": "Feature", "properties": { "osm_id": -2131128092.000000, "timestamp": null, "name": "Centre de Santé Communautaire de Falako", "type": "clinic" }, "geometry": { "type": "Point", "coordinates": [ -7.182294, 12.570573 ] } },
{ "type": "Feature", "properties": { "osm_id": -2131128091.000000, "timestamp": null, "name": "Centre de Santé Communautaire de Falani", "type": "clinic" }, "geometry": { "type": "Point", "coordinates": [ -7.799802, 12.446034 ] } },
{ "type": "Feature", "properties": { "osm_id": -2131128090.000000, "timestamp": null, "name": "Centre de Santé Communautaire de Falea", "type": "clinic" }, "geometry": { "type": "Point", "coordinates": [ -11.273072, 12.26365 ] } },
{ "type": "Feature", "properties": { "osm_id": -2131128089.000000, "timestamp": null, "name": "CSCOM de FALLOU", "type": "clinic" }, "geometry": { "type": "Point", "coordinates": [ -7.6032, 14.37983 ] } },
{ "type": "Feature", "properties": { "osm_id": -2131128088.000000, "timestamp": null, "name": "CSCOM de FALO", "type": "clinic" }, "geometry": { "type": "Point", "coordinates": [ -6.236335, 12.911841 ] } },
{ "type": "Feature", "properties": { "osm_id": -2131128087.000000, "timestamp": null, "name": "CSCOM de FAMA", "type": "clinic" }, "geometry": { "type": "Point", "coordinates": [ -5.74611, 11.43972 ] } },
{ "type": "Feature", "properties": { "osm_id": -2131128086.000000, "timestamp": null, "name": "CSCOM de FAMORILA", "type": "clinic" }, "geometry": { "type": "Point", "coordinates": [ -5.48891, 13.41672 ] } },
{ "type": "Feature", "properties": { "osm_id": -2131128085.000000, "timestamp": null, "name": "CSCOM de FAMOUSSASSO", "type": "clinic" }, "geometry": { "type": "Point", "coordinates": [ -5.31472, 12.45861 ] } },
{ "type": "Feature", "properties": { "osm_id": -2131128084.000000, "timestamp": null, "name": "Centre de Santé Communautaire de Fana Central", "type": "clinic" }, "geometry": { "type": "Point", "coordinates": [ -6.959385, 12.777276 ] } },
{ "type": "Feature", "properties": { "osm_id": -2131128078.000000, "timestamp": null, "name": "CSCOM de FANGA", "type": "clinic" }, "geometry": { "type": "Point", "coordinates": [ -10.39595, 15.11045 ] } },
{ "type": "Feature", "properties": { "osm_id": -2131128077.000000, "timestamp": null, "name": "CSCOM de FANGASSO", "type": "clinic" }, "geometry": { "type": "Point", "coordinates": [ -4.37742, 13.53861 ] } },
{ "type": "Feature", "properties": { "osm_id": -2131128076.000000, "timestamp": null, "name": "CSCOM de FANI", "type": "clinic" }, "geometry": { "type": "Point", "coordinates": [ -5.33865, 13.19777 ] } },
{ "type": "Feature", "properties": { "osm_id": -2131128075.000000, "timestamp": null, "name": "CSCOM de FANTARASSO", "type": "clinic" }, "geometry": { "type": "Point", "coordinates": [ -5.69167, 11.53472 ] } },
{ "type": "Feature", "properties": { "osm_id": -2131128074.000000, "timestamp": null, "name": "CSCOM de FAOU", "type": "clinic" }, "geometry": { "type": "Point", "coordinates": [ -3.939, 15.506167 ] } },
{ "type": "Feature", "properties": { "osm_id": -2131128073.000000, "timestamp": null, "name": "Centre de Santé Communautaire de Faraba Kenieba", "type": "clinic" }, "geometry": { "type": "Point", "coordinates": [ -10.897751, 12.432775 ] } },
{ "type": "Feature", "properties": { "osm_id": -2131128072.000000, "timestamp": null, "name": "Centre de Santé Communautaire de Faraba", "type": "clinic" }, "geometry": { "type": "Point", "coordinates": [ -8.311748, 11.383521 ] } },
{ "type": "Feature", "properties": { "osm_id": -2131128071.000000, "timestamp": null, "name": "Centre de Santé Communautaire de Faraba-Kati", "type": "clinic" }, "geometry": { "type": "Point", "coordinates": [ -8.146192, 11.905244 ] } },
{ "type": "Feature", "properties": { "osm_id": -2131128070.000000, "timestamp": null, "name": "Centre de Santé Communautaire de Farabana", "type": "clinic" }, "geometry": { "type": "Point", "coordinates": [ -8.121667, 12.456944 ] } },
{ "type": "Feature", "properties": { "osm_id": -2131128069.000000, "timestamp": null, "name": "CSCOM de FARABOUGOU", "type": "clinic" }, "geometry": { "type": "Point", "coordinates": [ -9.56701, 14.51892 ] } },
{ "type": "Feature", "properties": { "osm_id": -2131128068.000000, "timestamp": null, "name": "Centre de Santé Communautaire de Farada", "type": "clinic" }, "geometry": { "type": "Point", "coordinates": [ -8.07213, 12.76786 ] } },
{ "type": "Feature", "properties": { "osm_id": -2131128067.000000, "timestamp": null, "name": "Centre de Santé Communautaire de Faragouaran", "type": "clinic" }, "geometry": { "type": "Point", "coordinates": [ -7.775654, 11.312198 ] } },
{ "type": "Feature", "properties": { "osm_id": -2131128066.000000, "timestamp": null, "name": "CSCOM de FARAKALA", "type": "clinic" }, "geometry": { "type": "Point", "coordinates": [ -5.79854, 11.28131 ] } },
{ "type": "Feature", "properties": { "osm_id": -2131128065.000000, "timestamp": null, "name": "Centre de Santé Communautaire de Farako", "type": "clinic" }, "geometry": { "type": "Point", "coordinates": [ -6.389028, 13.406995 ] } },
{ "type": "Feature", "properties": { "osm_id": -2131128064.000000, "timestamp": null, "name": "CSCOM de FARAKO-KOLONDIEBA", "type": "clinic" }, "geometry": { "type": "Point", "coordinates": [ -6.57455, 11.37059 ] } },
{ "type": "Feature", "properties": { "osm_id": -2131128063.000000, "timestamp": null, "name": "CSCOM de FASSOUDEBE", "type": "clinic" }, "geometry": { "type": "Point", "coordinates": [ -9.48934, 14.99901 ] } },
{ "type": "Feature", "properties": { "osm_id": -2131128062.000000, "timestamp": null, "name": "CSCOM de FASSOUM IBT", "type": "clinic" }, "geometry": { "type": "Point", "coordinates": [ -5.87116, 14.58284 ] } },
{ "type": "Feature", "properties": { "osm_id": -2131128061.000000, "timestamp": null, "name": "CSCOM de FATAO", "type": "clinic" }, "geometry": { "type": "Point", "coordinates": [ -9.47586, 14.28449 ] } },
{ "type": "Feature", "properties": { "osm_id": -2131128060.000000, "timestamp": null, "name": "CSCOM de FATINE", "type": "clinic" }, "geometry": { "type": "Point", "coordinates": [ -5.28142, 13.43046 ] } },
{ "type": "Feature", "properties": { "osm_id": -2131128058.000000, "timestamp": null, "name": "CSCOM de FATOMA", "type": "clinic" }, "geometry": { "type": "Point", "coordinates": [ -4.07682, 14.61071 ] } },
{ "type": "Feature", "properties": { "osm_id": -2131128055.000000, "timestamp": null, "name": "CSCOM de FEGUI", "type": "clinic" }, "geometry": { "type": "Point", "coordinates": [ -12.10457, 14.53951 ] } },
{ "type": "Feature", "properties": { "osm_id": -2131128053.000000, "timestamp": null, "name": "CSCOM de FERME", "type": "clinic" }, "geometry": { "type": "Point", "coordinates": [ -5.65703, 12.55054 ] } },
{ "type": "Feature", "properties": { "osm_id": -2131128052.000000, "timestamp": null, "name": "Centre de Santé Communautaire de Figuiratomo", "type": "clinic" }, "geometry": { "type": "Point", "coordinates": [ -8.34103, 11.851 ] } },
{ "type": "Feature", "properties": { "osm_id": -2131128051.000000, "timestamp": null, "name": "Centre de Santé Communautaire de Filamana", "type": "clinic" }, "geometry": { "type": "Point", "coordinates": [ -7.953696, 10.499036 ] } },
{ "type": "Feature", "properties": { "osm_id": -2131128050.000000, "timestamp": null, "name": "CSCOM de FINKOLO AC", "type": "clinic" }, "geometry": { "type": "Point", "coordinates": [ -6.02965, 11.42288 ] } },
{ "type": "Feature", "properties": { "osm_id": -2131128049.000000, "timestamp": null, "name": "CSCOM de FINKOLO Ganadougou", "type": "clinic" }, "geometry": { "type": "Point", "coordinates": [ -5.72861, 11.31889 ] } },
{ "type": "Feature", "properties": { "osm_id": -2131128048.000000, "timestamp": null, "name": "CSCOM de FION", "type": "clinic" }, "geometry": { "type": "Point", "coordinates": [ -4.7429, 13.44578 ] } },
{ "type": "Feature", "properties": { "osm_id": -2131128047.000000, "timestamp": null, "name": "CSCOM de FISSABA", "type": "clinic" }, "geometry": { "type": "Point", "coordinates": [ -6.67393, 11.97936 ] } },
{ "type": "Feature", "properties": { "osm_id": -2131128046.000000, "timestamp": null, "name": "CSCOM de FLADOUGOU BANKASSI", "type": "clinic" }, "geometry": { "type": "Point", "coordinates": [ -9.10709, 13.25467 ] } },
{ "type": "Feature", "properties": { "osm_id": -2131128045.000000, "timestamp": null, "name": "CSCOM de FLADOUGOU MADINA", "type": "clinic" }, "geometry": { "type": "Point", "coordinates": [ -8.87421, 13.60872 ] } },
{ "type": "Feature", "properties": { "osm_id": -2131128044.000000, "timestamp": null, "name": "CSCOM de FLADOUGOU MARENA", "type": "clinic" }, "geometry": { "type": "Point", "coordinates": [ -9.14928, 13.37319 ] } },
{ "type": "Feature", "properties": { "osm_id": -2131128043.000000, "timestamp": null, "name": "Centre de Santé Communautaire de Fogoba", "type": "clinic" }, "geometry": { "type": "Point", "coordinates": [ -7.44261, 12.03978 ] } },
{ "type": "Feature", "properties": { "osm_id": -2131128042.000000, "timestamp": null, "name": "CSCOM de FOH", "type": "clinic" }, "geometry": { "type": "Point", "coordinates": [ -6.26861, 11.48722 ] } },
{ "type": "Feature", "properties": { "osm_id": -2131128041.000000, "timestamp": null, "name": "CSCOM de FOLOMANA", "type": "clinic" }, "geometry": { "type": "Point", "coordinates": [ -5.0607, 13.66132 ] } },
{ "type": "Feature", "properties": { "osm_id": -2131128040.000000, "timestamp": null, "name": "CSCOM de FONFONA", "type": "clinic" }, "geometry": { "type": "Point", "coordinates": [ -5.65601, 12.618 ] } },
{ "type": "Feature", "properties": { "osm_id": -2131128039.000000, "timestamp": null, "name": "CSCOM de FORGHO", "type": "clinic" }, "geometry": { "type": "Point", "coordinates": [ 0.12343, 16.72338 ] } },
{ "type": "Feature", "properties": { "osm_id": -2131128038.000000, "timestamp": null, "name": "CSCOM de FOSSE KAARTA", "type": "clinic" }, "geometry": { "type": "Point", "coordinates": [ -9.7857, 15.1989 ] } },
{ "type": "Feature", "properties": { "osm_id": -2131128037.000000, "timestamp": null, "name": "Centre de Santé Communautaire de Fougatié", "type": "clinic" }, "geometry": { "type": "Point", "coordinates": [ -8.368, 11.13 ] } },
{ "type": "Feature", "properties": { "osm_id": -2131128036.000000, "timestamp": null, "name": "CSCOM de FOUROU", "type": "clinic" }, "geometry": { "type": "Point", "coordinates": [ -6.146944, 10.744444 ] } },
{ "type": "Feature", "properties": { "osm_id": -2131128035.000000, "timestamp": null, "name": "CSCOM de FRANDALAH", "type": "clinic" }, "geometry": { "type": "Point", "coordinates": [ -9.98111, 15.11139 ] } },
{ "type": "Feature", "properties": { "osm_id": -2131128034.000000, "timestamp": null, "name": "CSCOM de GABOU", "type": "clinic" }, "geometry": { "type": "Point", "coordinates": [ -11.17776, 14.56094 ] } },
{ "type": "Feature", "properties": { "osm_id": -2131128033.000000, "timestamp": null, "name": "CSCOM de GADEYE", "type": "clinic" }, "geometry": { "type": "Point", "coordinates": [ 0.27248, 16.53481 ] } },
{ "type": "Feature", "properties": { "osm_id": -2131128032.000000, "timestamp": null, "name": "CSCOM de GADIABA-KADIEL", "type": "clinic" }, "geometry": { "type": "Point", "coordinates": [ -9.75628, 15.08279 ] } },
{ "type": "Feature", "properties": { "osm_id": -2131128031.000000, "timestamp": null, "name": "CSCOM de GAGNA", "type": "clinic" }, "geometry": { "type": "Point", "coordinates": [ -4.56757, 13.99696 ] } },
{ "type": "Feature", "properties": { "osm_id": -2131128030.000000, "timestamp": null, "name": "CSCOM de GAKOURA", "type": "clinic" }, "geometry": { "type": "Point", "coordinates": [ -11.96865, 14.69032 ] } },
{ "type": "Feature", "properties": { "osm_id": -2131128029.000000, "timestamp": null, "name": "Centre de Santé Communautaire de Gallé", "type": "clinic" }, "geometry": { "type": "Point", "coordinates": [ -9.5031, 12.584451 ] } },
{ "type": "Feature", "properties": { "osm_id": -2131128028.000000, "timestamp": null, "name": "CSCOM de GANGAFANI", "type": "clinic" }, "geometry": { "type": "Point", "coordinates": [ -2.38115, 14.48886 ] } },
{ "type": "Feature", "properties": { "osm_id": -2131128027.000000, "timestamp": null, "name": "CSCOM de GANIDAH", "type": "clinic" }, "geometry": { "type": "Point", "coordinates": [ -3.60021, 13.36702 ] } },
{ "type": "Feature", "properties": { "osm_id": -2131128026.000000, "timestamp": null, "name": "Centre de Santé Communautaire de Garalo II", "type": "clinic" }, "geometry": { "type": "Point", "coordinates": [ -7.439198, 10.981725 ] } },
{ "type": "Feature", "properties": { "osm_id": -2131128024.000000, "timestamp": null, "name": "CSCOM de GARASSO", "type": "clinic" }, "geometry": { "type": "Point", "coordinates": [ -5.11786, 12.30464 ] } },
{ "type": "Feature", "properties": { "osm_id": -2131128023.000000, "timestamp": null, "name": "CSCOM de GARBAKOIRA", "type": "clinic" }, "geometry": { "type": "Point", "coordinates": [ -3.16772, 16.54891 ] } },
{ "type": "Feature", "properties": { "osm_id": -2131128022.000000, "timestamp": null, "name": "CSCOM de GARBAME", "type": "clinic" }, "geometry": { "type": "Point", "coordinates": [ -1.12865, 17.27744 ] } },
{ "type": "Feature", "properties": { "osm_id": -2131128021.000000, "timestamp": null, "name": "CSCOM de GARGANDO", "type": "clinic" }, "geometry": { "type": "Point", "coordinates": [ -4.168651, 16.469718 ] } },
{ "type": "Feature", "properties": { "osm_id": -2131128020.000000, "timestamp": null, "name": "CSCOM de GARGOUNA", "type": "clinic" }, "geometry": { "type": "Point", "coordinates": [ 0.54036, 16.1087 ] } },
{ "type": "Feature", "properties": { "osm_id": -2131128019.000000, "timestamp": null, "name": "CSCOM de Gari", "type": "clinic" }, "geometry": { "type": "Point", "coordinates": [ -3.323427, 16.326763 ] } },
{ "type": "Feature", "properties": { "osm_id": -2131128018.000000, "timestamp": null, "name": "Centre de Santé Communautaire de Garna", "type": "clinic" }, "geometry": { "type": "Point", "coordinates": [ -6.792931, 13.332309 ] } },
{ "type": "Feature", "properties": { "osm_id": -2131128017.000000, "timestamp": null, "name": "CSCOM de GARNATY", "type": "clinic" }, "geometry": { "type": "Point", "coordinates": [ -3.55649, 15.88916 ] } },
{ "type": "Feature", "properties": { "osm_id": -2131128016.000000, "timestamp": null, "name": "CSCOM de GATHI", "type": "clinic" }, "geometry": { "type": "Point", "coordinates": [ -4.606167, 15.4705 ] } },
{ "type": "Feature", "properties": { "osm_id": -2131128015.000000, "timestamp": null, "name": "CSCOM de GAVINANE", "type": "clinic" }, "geometry": { "type": "Point", "coordinates": [ -10.01649, 15.12669 ] } },
{ "type": "Feature", "properties": { "osm_id": -2131128014.000000, "timestamp": null, "name": "CSCOM de GAYE MAOUDE", "type": "clinic" }, "geometry": { "type": "Point", "coordinates": [ -3.78007, 15.90657 ] } },