{
"type": "FeatureCollection",
"crs": { "type": "name", "properties": { "name": "urn:ogc:def:crs:OGC:1.3:CRS84" } },
                                                                                
"features": [
{ "type": "Feature", "properties": { "osm_id": 1085435748.000000, "timestamp": null, "name": "INASA", "type": "school" }, "geometry": { "type": "Point", "coordinates": [ -7.938704, 12.668176 ] } },
{ "type": "Feature", "properties": { "osm_id": 1086034865.000000, "timestamp": null, "name": "COLLEGE École privée ESPERANCE [1er C]", "type": "school" }, "geometry": { "type": "Point", "coordinates": [ -8.023429, 12.59298 ] } },
{ "type": "Feature", "properties": { "osm_id": 1412081683.000000, "timestamp": null, "name": "Lycée provincial \/ High School", "type": "school" }, "geometry": { "type": "Point", "coordinates": [ -5.17551, 10.670958 ] } },
{ "type": "Feature", "properties": { "osm_id": 1805225110.000000, "timestamp": null, "name": "Adame Bah Konaré", "type": "school" }, "geometry": { "type": "Point", "coordinates": [ -7.954653, 12.670647 ] } },
{ "type": "Feature", "properties": { "osm_id": 1805336232.000000, "timestamp": null, "name": "ECOSUP", "type": "school" }, "geometry": { "type": "Point", "coordinates": [ -7.941152, 12.673194 ] } },
{ "type": "Feature", "properties": { "osm_id": 1805336255.000000, "timestamp": null, "name": null, "type": "school" }, "geometry": { "type": "Point", "coordinates": [ -7.939241, 12.677968 ] } },
{ "type": "Feature", "properties": { "osm_id": 1829778672.000000, "timestamp": null, "name": "S.I.D.I", "type": "school" }, "geometry": { "type": "Point", "coordinates": [ -7.930399, 12.669202 ] } },
{ "type": "Feature", "properties": { "osm_id": 1829778679.000000, "timestamp": null, "name": null, "type": "school" }, "geometry": { "type": "Point", "coordinates": [ -7.972996, 12.662007 ] } },
{ "type": "Feature", "properties": { "osm_id": 1845464236.000000, "timestamp": null, "name": null, "type": "school" }, "geometry": { "type": "Point", "coordinates": [ -8.000259, 12.642769 ] } },
{ "type": "Feature", "properties": { "osm_id": 1848675936.000000, "timestamp": null, "name": "Lycée Technique de Bamako", "type": "school" }, "geometry": { "type": "Point", "coordinates": [ -7.997357, 12.654466 ] } },
{ "type": "Feature", "properties": { "osm_id": 1848675937.000000, "timestamp": null, "name": "E.C.I.CA", "type": "school" }, "geometry": { "type": "Point", "coordinates": [ -7.996459, 12.654897 ] } },
{ "type": "Feature", "properties": { "osm_id": 1848700197.000000, "timestamp": null, "name": "L.B.A.D", "type": "school" }, "geometry": { "type": "Point", "coordinates": [ -7.998247, 12.656348 ] } },
{ "type": "Feature", "properties": { "osm_id": -2131128672.000000, "timestamp": null, "name": "BAZO", "type": "school" }, "geometry": { "type": "Point", "coordinates": [ -7.92094, 12.60002 ] } },
{ "type": "Feature", "properties": { "osm_id": -2131128657.000000, "timestamp": null, "name": "C F I S", "type": "school" }, "geometry": { "type": "Point", "coordinates": [ -6.26669, 13.43359 ] } },
{ "type": "Feature", "properties": { "osm_id": -2131128656.000000, "timestamp": null, "name": "C F T S S", "type": "school" }, "geometry": { "type": "Point", "coordinates": [ -6.23353, 13.43336 ] } },
{ "type": "Feature", "properties": { "osm_id": -2131128652.000000, "timestamp": null, "name": "CFTSS", "type": "school" }, "geometry": { "type": "Point", "coordinates": [ -8.0169, 12.60043 ] } },
{ "type": "Feature", "properties": { "osm_id": -2131127224.000000, "timestamp": null, "name": "Centre Technique de Formation Santé +", "type": "school" }, "geometry": { "type": "Point", "coordinates": [ -7.97692, 12.54923 ] } },
{ "type": "Feature", "properties": { "osm_id": -2131127217.000000, "timestamp": null, "name": "Centre de Formation Science de la Santé", "type": "school" }, "geometry": { "type": "Point", "coordinates": [ -7.97691, 12.48685 ] } },
{ "type": "Feature", "properties": { "osm_id": -2131127214.000000, "timestamp": null, "name": "Centre de Formation des Techniciens(CFTSS)", "type": "school" }, "geometry": { "type": "Point", "coordinates": [ -6.93351, 12.80341 ] } },
{ "type": "Feature", "properties": { "osm_id": -2131127210.000000, "timestamp": null, "name": "Centre de Formation des agents de santé", "type": "school" }, "geometry": { "type": "Point", "coordinates": [ -5.348381, 13.963751 ] } },
{ "type": "Feature", "properties": { "osm_id": -2131127206.000000, "timestamp": null, "name": "Centre de Formation en Santé de Kayes", "type": "school" }, "geometry": { "type": "Point", "coordinates": [ -11.33356, 14.38046 ] } },
{ "type": "Feature", "properties": { "osm_id": -2131127203.000000, "timestamp": null, "name": "Centre de Reception et regulation des appels", "type": "school" }, "geometry": { "type": "Point", "coordinates": [ -7.97274, 12.6502 ] } },
{ "type": "Feature", "properties": { "osm_id": -2131127001.000000, "timestamp": null, "name": "Complexe scolaire Madame Touré Lobo Traoré", "type": "school" }, "geometry": { "type": "Point", "coordinates": [ -5.705, 11.57694 ] } },
{ "type": "Feature", "properties": { "osm_id": -2131126989.000000, "timestamp": null, "name": "DJIGUI DE KATI", "type": "school" }, "geometry": { "type": "Point", "coordinates": [ -8.107077, 12.788574 ] } },
{ "type": "Feature", "properties": { "osm_id": -2131126950.000000, "timestamp": null, "name": "ECOBESS", "type": "school" }, "geometry": { "type": "Point", "coordinates": [ -4.90008, 13.28337 ] } },
{ "type": "Feature", "properties": { "osm_id": -2131126949.000000, "timestamp": null, "name": "EFORSAD", "type": "school" }, "geometry": { "type": "Point", "coordinates": [ -2.98056, 15.04917 ] } },
{ "type": "Feature", "properties": { "osm_id": -2131126948.000000, "timestamp": null, "name": "EFPIM", "type": "school" }, "geometry": { "type": "Point", "coordinates": [ -7.94313, 12.60721 ] } },
{ "type": "Feature", "properties": { "osm_id": -2131126946.000000, "timestamp": null, "name": "EFSSD", "type": "school" }, "geometry": { "type": "Point", "coordinates": [ -6.7836, 12.45339 ] } },
{ "type": "Feature", "properties": { "osm_id": -2131126945.000000, "timestamp": null, "name": "EFTSKOS", "type": "school" }, "geometry": { "type": "Point", "coordinates": [ -9.62006, 15.2169 ] } },
{ "type": "Feature", "properties": { "osm_id": -2131126944.000000, "timestamp": null, "name": "EFTSS (ECOLE DE FORMATION DES TSS)", "type": "school" }, "geometry": { "type": "Point", "coordinates": [ -6.20022, 13.4167 ] } },
{ "type": "Feature", "properties": { "osm_id": -2131126943.000000, "timestamp": null, "name": "EFTSS", "type": "school" }, "geometry": { "type": "Point", "coordinates": [ -7.96075, 12.60003 ] } },
{ "type": "Feature", "properties": { "osm_id": -2131126942.000000, "timestamp": null, "name": "EIG", "type": "school" }, "geometry": { "type": "Point", "coordinates": [ -0.03972, 16.27806 ] } },
{ "type": "Feature", "properties": { "osm_id": -2131126941.000000, "timestamp": null, "name": "ESB BKO", "type": "school" }, "geometry": { "type": "Point", "coordinates": [ -7.94718, 12.65217 ] } },
{ "type": "Feature", "properties": { "osm_id": -2131126939.000000, "timestamp": null, "name": "ESSKC", "type": "school" }, "geometry": { "type": "Point", "coordinates": [ -4.9, 13.30002 ] } },
{ "type": "Feature", "properties": { "osm_id": -2131126937.000000, "timestamp": null, "name": "Ecole Centre des Etudes Sanitaires", "type": "school" }, "geometry": { "type": "Point", "coordinates": [ -7.99996, 12.59553 ] } },
{ "type": "Feature", "properties": { "osm_id": -2131126936.000000, "timestamp": null, "name": "École Para Medical des 4 O", "type": "school" }, "geometry": { "type": "Point", "coordinates": [ -7.97575, 12.65326 ] } },
{ "type": "Feature", "properties": { "osm_id": -2131126934.000000, "timestamp": null, "name": "Ecole de Formation de la santé", "type": "school" }, "geometry": { "type": "Point", "coordinates": [ -11.35008, 14.42054 ] } },
{ "type": "Feature", "properties": { "osm_id": -2131126933.000000, "timestamp": null, "name": "Ecole de Formation des Agents Santé", "type": "school" }, "geometry": { "type": "Point", "coordinates": [ -7.9835, 12.60775 ] } },
{ "type": "Feature", "properties": { "osm_id": -2131126932.000000, "timestamp": null, "name": "Ecole de Formation des Prestations de Santé de", "type": "school" }, "geometry": { "type": "Point", "coordinates": [ -0.043561, 16.290157 ] } },
{ "type": "Feature", "properties": { "osm_id": -2131126931.000000, "timestamp": null, "name": "Ecole de Formation des Techniciens de  Santé", "type": "school" }, "geometry": { "type": "Point", "coordinates": [ -6.00389, 10.65139 ] } },
{ "type": "Feature", "properties": { "osm_id": -2131126930.000000, "timestamp": null, "name": "Ecole de Formation des Techniciens de  Santé", "type": "school" }, "geometry": { "type": "Point", "coordinates": [ -6.42417, 11.755 ] } },
{ "type": "Feature", "properties": { "osm_id": -2131126929.000000, "timestamp": null, "name": "Ecole de Formation des Techniciens de  Santé", "type": "school" }, "geometry": { "type": "Point", "coordinates": [ -5.69111, 12.39028 ] } },
{ "type": "Feature", "properties": { "osm_id": -2131126928.000000, "timestamp": null, "name": "Ecole de Formation des Tehniciens de Santé", "type": "school" }, "geometry": { "type": "Point", "coordinates": [ -8.39611, 11.23722 ] } },
{ "type": "Feature", "properties": { "osm_id": -2131126927.000000, "timestamp": null, "name": "École de Formation des infirmiers et TSSS", "type": "school" }, "geometry": { "type": "Point", "coordinates": [ -7.98754, 12.55021 ] } },
{ "type": "Feature", "properties": { "osm_id": -2131126926.000000, "timestamp": null, "name": "Ecole de Santé  ESKESPOIR", "type": "school" }, "geometry": { "type": "Point", "coordinates": [ -5.45139, 12.42556 ] } },
{ "type": "Feature", "properties": { "osm_id": -2131126925.000000, "timestamp": null, "name": "École de Santé FELIX", "type": "school" }, "geometry": { "type": "Point", "coordinates": [ -7.93144, 12.647968 ] } },
{ "type": "Feature", "properties": { "osm_id": -2131126924.000000, "timestamp": null, "name": "Ecole de Santé <<Beuso>>", "type": "school" }, "geometry": { "type": "Point", "coordinates": [ -5.72972, 11.49139 ] } },
{ "type": "Feature", "properties": { "osm_id": -2131126923.000000, "timestamp": null, "name": "Ecole de Santé <<Goufla Koné>>", "type": "school" }, "geometry": { "type": "Point", "coordinates": [ -7.025, 11.23361 ] } },
{ "type": "Feature", "properties": { "osm_id": -2131126922.000000, "timestamp": null, "name": "Ecole de Santé BATA - SEKOU", "type": "school" }, "geometry": { "type": "Point", "coordinates": [ -9.48335, 13.13345 ] } },
{ "type": "Feature", "properties": { "osm_id": -2131126921.000000, "timestamp": null, "name": "Ecole de Santé BAZO", "type": "school" }, "geometry": { "type": "Point", "coordinates": [ -8.01185, 12.64804 ] } },
{ "type": "Feature", "properties": { "osm_id": -2131126919.000000, "timestamp": null, "name": "Ecole de Santé Fasso Kanu", "type": "school" }, "geometry": { "type": "Point", "coordinates": [ -7.96069, 12.60821 ] } },
{ "type": "Feature", "properties": { "osm_id": -2131126918.000000, "timestamp": null, "name": "Ecole de Santé Guegnéka", "type": "school" }, "geometry": { "type": "Point", "coordinates": [ -6.95003, 12.78337 ] } },
{ "type": "Feature", "properties": { "osm_id": -2131126917.000000, "timestamp": null, "name": "École de Santé Kolomba", "type": "school" }, "geometry": { "type": "Point", "coordinates": [ -7.96473, 12.58344 ] } },
{ "type": "Feature", "properties": { "osm_id": -2131126916.000000, "timestamp": null, "name": "Ecole de Santé N'dounga", "type": "school" }, "geometry": { "type": "Point", "coordinates": [ -8.00022, 12.5756 ] } },
{ "type": "Feature", "properties": { "osm_id": -2131126915.000000, "timestamp": null, "name": "École de Santé Narhawa", "type": "school" }, "geometry": { "type": "Point", "coordinates": [ -7.98947, 12.56775 ] } },
{ "type": "Feature", "properties": { "osm_id": -2131126914.000000, "timestamp": null, "name": "Ecole de Santé Poly Techniqque de Fana", "type": "school" }, "geometry": { "type": "Point", "coordinates": [ -6.93353, 12.7634 ] } },
{ "type": "Feature", "properties": { "osm_id": -2131126913.000000, "timestamp": null, "name": "Ecole de Santé TATA SYLLA BLA", "type": "school" }, "geometry": { "type": "Point", "coordinates": [ -5.77025, 12.95003 ] } },
{ "type": "Feature", "properties": { "osm_id": -2131126911.000000, "timestamp": null, "name": "Ecole de Santé de BOUCTOU", "type": "school" }, "geometry": { "type": "Point", "coordinates": [ -3.69389, 14.39056 ] } },
{ "type": "Feature", "properties": { "osm_id": -2131126910.000000, "timestamp": null, "name": "Ecole de Santé de TOMBOUCTOU", "type": "school" }, "geometry": { "type": "Point", "coordinates": [ -3.00014, 16.7702 ] } },
{ "type": "Feature", "properties": { "osm_id": -2131126909.000000, "timestamp": null, "name": "Ecole de Santé de Baguinéda", "type": "school" }, "geometry": { "type": "Point", "coordinates": [ -7.772498, 12.563066 ] } },
{ "type": "Feature", "properties": { "osm_id": -2131126908.000000, "timestamp": null, "name": "Ecole de Santé de KITA (ESK)", "type": "school" }, "geometry": { "type": "Point", "coordinates": [ -9.58334, 13.09339 ] } },
{ "type": "Feature", "properties": { "osm_id": -2131126907.000000, "timestamp": null, "name": "Ecole de Santé de Kayes N'DI", "type": "school" }, "geometry": { "type": "Point", "coordinates": [ -11.61686, 14.45014 ] } },
{ "type": "Feature", "properties": { "osm_id": -2131126906.000000, "timestamp": null, "name": "Ecole de Santé deE ZEGOUA", "type": "school" }, "geometry": { "type": "Point", "coordinates": [ -5.70139, 10.71611 ] } },
{ "type": "Feature", "properties": { "osm_id": -2131126905.000000, "timestamp": null, "name": "Ecole de Santé du Kala de Niono", "type": "school" }, "geometry": { "type": "Point", "coordinates": [ -5.90684, 14.2501 ] } },
{ "type": "Feature", "properties": { "osm_id": -2131126903.000000, "timestamp": null, "name": "Ecole de SantéMAMADOU SANGARE", "type": "school" }, "geometry": { "type": "Point", "coordinates": [ -6.23444, 12.02417 ] } },
{ "type": "Feature", "properties": { "osm_id": -2131126902.000000, "timestamp": null, "name": "Ecole de formation YOLAND BRESSON)", "type": "school" }, "geometry": { "type": "Point", "coordinates": [ -4.24667, 14.6125 ] } },
{ "type": "Feature", "properties": { "osm_id": -2131126878.000000, "timestamp": null, "name": "HIPPOCRATE", "type": "school" }, "geometry": { "type": "Point", "coordinates": [ -8.00024, 12.76343 ] } },
{ "type": "Feature", "properties": { "osm_id": -2131126862.000000, "timestamp": null, "name": "IFAS", "type": "school" }, "geometry": { "type": "Point", "coordinates": [ -7.91698, 12.53349 ] } },
{ "type": "Feature", "properties": { "osm_id": -2131126840.000000, "timestamp": null, "name": "Institut National de Formation - Sévaré", "type": "school" }, "geometry": { "type": "Point", "coordinates": [ -4.10056, 14.66833 ] } },
{ "type": "Feature", "properties": { "osm_id": -2131126838.000000, "timestamp": null, "name": "Institut National de Formation en Santé - Médi", "type": "school" }, "geometry": { "type": "Point", "coordinates": [ -5.84278, 11.42611 ] } },
{ "type": "Feature", "properties": { "osm_id": -2131126837.000000, "timestamp": null, "name": "Institut de Formation en Santé - Djélibougou", "type": "school" }, "geometry": { "type": "Point", "coordinates": [ -7.93645, 12.66673 ] } },
{ "type": "Feature", "properties": { "osm_id": -2131126836.000000, "timestamp": null, "name": "Institut de Formation en Santé", "type": "school" }, "geometry": { "type": "Point", "coordinates": [ -11.36681, 14.33336 ] } },
{ "type": "Feature", "properties": { "osm_id": -2131126821.000000, "timestamp": null, "name": "KENEYA SIRA", "type": "school" }, "geometry": { "type": "Point", "coordinates": [ -8.07335, 12.50354 ] } },
{ "type": "Feature", "properties": { "osm_id": -2131126797.000000, "timestamp": null, "name": "Le CSP SEMAN", "type": "school" }, "geometry": { "type": "Point", "coordinates": [ -7.97045, 12.58337 ] } },
{ "type": "Feature", "properties": { "osm_id": -2131126794.000000, "timestamp": null, "name": "LE SERMENT", "type": "school" }, "geometry": { "type": "Point", "coordinates": [ -8.06676, 12.820062 ] } },
{ "type": "Feature", "properties": { "osm_id": -2131126066.000000, "timestamp": null, "name": "VICINTA - MARIA", "type": "school" }, "geometry": { "type": "Point", "coordinates": [ -6.26676, 13.41689 ] } },
{ "type": "Feature", "properties": { "osm_id": -2100932197.000000, "timestamp": null, "name": null, "type": "school" }, "geometry": { "type": "Point", "coordinates": [ 2.40116, 15.9139 ] } },
{ "type": "Feature", "properties": { "osm_id": -2100932196.000000, "timestamp": null, "name": null, "type": "school" }, "geometry": { "type": "Point", "coordinates": [ 2.38387, 15.92785 ] } },
{ "type": "Feature", "properties": { "osm_id": -2100932181.000000, "timestamp": null, "name": null, "type": "school" }, "geometry": { "type": "Point", "coordinates": [ 2.39649, 15.91956 ] } },
{ "type": "Feature", "properties": { "osm_id": -2100932177.000000, "timestamp": null, "name": null, "type": "school" }, "geometry": { "type": "Point", "coordinates": [ 2.39767, 15.911 ] } },
{ "type": "Feature", "properties": { "osm_id": -2100932175.000000, "timestamp": null, "name": null, "type": "school" }, "geometry": { "type": "Point", "coordinates": [ 2.518329, 15.807323 ] } },
{ "type": "Feature", "properties": { "osm_id": -2100932169.000000, "timestamp": null, "name": null, "type": "school" }, "geometry": { "type": "Point", "coordinates": [ 2.50246, 15.74914 ] } },
{ "type": "Feature", "properties": { "osm_id": -2100932167.000000, "timestamp": null, "name": null, "type": "school" }, "geometry": { "type": "Point", "coordinates": [ 2.894073, 15.628995 ] } },
{ "type": "Feature", "properties": { "osm_id": -1782322222.000000, "timestamp": null, "name": "Jean Paul II", "type": "school" }, "geometry": { "type": "Point", "coordinates": [ -7.956193, 12.579223 ] } },
{ "type": "Feature", "properties": { "osm_id": -1782258515.000000, "timestamp": null, "name": "Lycée privé Coline", "type": "school" }, "geometry": { "type": "Point", "coordinates": [ -8.099307, 12.752783 ] } },
{ "type": "Feature", "properties": { "osm_id": -1780910024.000000, "timestamp": null, "name": "Lycée du Progrès", "type": "school" }, "geometry": { "type": "Point", "coordinates": [ -7.957141, 12.588235 ] } },
{ "type": "Feature", "properties": { "osm_id": -1780899805.000000, "timestamp": null, "name": "Lycée Excellence", "type": "school" }, "geometry": { "type": "Point", "coordinates": [ -7.955394, 12.584695 ] } },
{ "type": "Feature", "properties": { "osm_id": -1780899803.000000, "timestamp": null, "name": "La Bruyère", "type": "school" }, "geometry": { "type": "Point", "coordinates": [ -7.956017, 12.579837 ] } },
{ "type": "Feature", "properties": { "osm_id": -1773775161.000000, "timestamp": null, "name": "Complexe scolaire Debougou Gnéry", "type": "school" }, "geometry": { "type": "Point", "coordinates": [ -7.95808, 12.593582 ] } },
{ "type": "Feature", "properties": { "osm_id": -1767008333.000000, "timestamp": null, "name": "Ecole Fondamentale Diamarabougou", "type": "school" }, "geometry": { "type": "Point", "coordinates": [ -6.07213, 13.676093 ] } },
{ "type": "Feature", "properties": { "osm_id": -1767008303.000000, "timestamp": null, "name": "C.E.F.P.A", "type": "school" }, "geometry": { "type": "Point", "coordinates": [ -6.071816, 13.681608 ] } },
{ "type": "Feature", "properties": { "osm_id": -1767008291.000000, "timestamp": null, "name": "Ecole fondamentale groupe centrale", "type": "school" }, "geometry": { "type": "Point", "coordinates": [ -6.071423, 13.685134 ] } },
{ "type": "Feature", "properties": { "osm_id": -1767008279.000000, "timestamp": null, "name": "Ecole privé espoir djigy", "type": "school" }, "geometry": { "type": "Point", "coordinates": [ -6.071191, 13.687661 ] } },
{ "type": "Feature", "properties": { "osm_id": -1694858004.000000, "timestamp": null, "name": null, "type": "school" }, "geometry": { "type": "Point", "coordinates": [ -11.764558, 12.834853 ] } },
{ "type": "Feature", "properties": { "osm_id": -1215237730.000000, "timestamp": null, "name": "A.E.CO.DA [1er C]", "type": "school" }, "geometry": { "type": "Point", "coordinates": [ -7.980431, 12.610274 ] } },
{ "type": "Feature", "properties": { "osm_id": -1215237729.000000, "timestamp": null, "name": "A.E.CO.DA [2ème C]", "type": "school" }, "geometry": { "type": "Point", "coordinates": [ -7.980433, 12.610228 ] } },
{ "type": "Feature", "properties": { "osm_id": -1215237728.000000, "timestamp": null, "name": "A.P.E.C. DA [1er C]", "type": "school" }, "geometry": { "type": "Point", "coordinates": [ -7.9818, 12.589583 ] } },
{ "type": "Feature", "properties": { "osm_id": -1215237727.000000, "timestamp": null, "name": "A.P.E.C. DA [2ème C]", "type": "school" }, "geometry": { "type": "Point", "coordinates": [ -7.9818, 12.589583 ] } },
{ "type": "Feature", "properties": { "osm_id": -1215237726.000000, "timestamp": null, "name": "ABBA TOURE [1er C]", "type": "school" }, "geometry": { "type": "Point", "coordinates": [ -7.997983, 12.552183 ] } },
{ "type": "Feature", "properties": { "osm_id": -1215237725.000000, "timestamp": null, "name": "ABBA TOURE [2ème C]", "type": "school" }, "geometry": { "type": "Point", "coordinates": [ -7.997983, 12.552183 ] } },
{ "type": "Feature", "properties": { "osm_id": -1215237724.000000, "timestamp": null, "name": "ABDOUL KADRI [1er C]", "type": "school" }, "geometry": { "type": "Point", "coordinates": [ -7.9893, 12.57687 ] } },
{ "type": "Feature", "properties": { "osm_id": -1215237723.000000, "timestamp": null, "name": "ABDOUL KADRI [2ème C]", "type": "school" }, "geometry": { "type": "Point", "coordinates": [ -7.9893, 12.57687 ] } },
{ "type": "Feature", "properties": { "osm_id": -1215237722.000000, "timestamp": null, "name": "ABO-ONO [1er C]", "type": "school" }, "geometry": { "type": "Point", "coordinates": [ -7.989546, 12.600877 ] } },
{ "type": "Feature", "properties": { "osm_id": -1215237721.000000, "timestamp": null, "name": "ABO-ONO [2ème C]", "type": "school" }, "geometry": { "type": "Point", "coordinates": [ -7.989358, 12.60073 ] } },
{ "type": "Feature", "properties": { "osm_id": -1215237720.000000, "timestamp": null, "name": "AISSE AHMADOU SANGARE [1er C]", "type": "school" }, "geometry": { "type": "Point", "coordinates": [ -8.030674, 12.59185 ] } },
{ "type": "Feature", "properties": { "osm_id": -1215237719.000000, "timestamp": null, "name": "AISSE AHMADOU SANGARE [2ème C]", "type": "school" }, "geometry": { "type": "Point", "coordinates": [ -8.030674, 12.591818 ] } },
{ "type": "Feature", "properties": { "osm_id": -1215237718.000000, "timestamp": null, "name": "AKC DIT CABRAL [1er C]", "type": "school" }, "geometry": { "type": "Point", "coordinates": [ -7.99025, 12.620367 ] } },
{ "type": "Feature", "properties": { "osm_id": -1215237717.000000, "timestamp": null, "name": "AKC DIT CABRAL [2ème C]", "type": "school" }, "geometry": { "type": "Point", "coordinates": [ -7.99065, 12.6202 ] } },
{ "type": "Feature", "properties": { "osm_id": -1215237716.000000, "timestamp": null, "name": "ALPHA OUMAR KONARE [1er C]", "type": "school" }, "geometry": { "type": "Point", "coordinates": [ -8.01588, 12.58957 ] } },
{ "type": "Feature", "properties": { "osm_id": -1215237714.000000, "timestamp": null, "name": "AMADOU HAMPÂTE BAH [1er C]", "type": "school" }, "geometry": { "type": "Point", "coordinates": [ -8.007928, 12.593417 ] } },
{ "type": "Feature", "properties": { "osm_id": -1215237712.000000, "timestamp": null, "name": "AMITIE [1er C]", "type": "school" }, "geometry": { "type": "Point", "coordinates": [ -7.98977, 12.59083 ] } },
{ "type": "Feature", "properties": { "osm_id": -1215237711.000000, "timestamp": null, "name": "AMITIE [2ème C]", "type": "school" }, "geometry": { "type": "Point", "coordinates": [ -7.98977, 12.59083 ] } },
{ "type": "Feature", "properties": { "osm_id": -1215237710.000000, "timestamp": null, "name": "BACO DJICORONI A", "type": "school" }, "geometry": { "type": "Point", "coordinates": [ -8.009567, 12.598067 ] } },
{ "type": "Feature", "properties": { "osm_id": -1215237709.000000, "timestamp": null, "name": "BACO DJICORONI B", "type": "school" }, "geometry": { "type": "Point", "coordinates": [ -8.008217, 12.597533 ] } },
{ "type": "Feature", "properties": { "osm_id": -1215237708.000000, "timestamp": null, "name": "BACO DJICORONI C", "type": "school" }, "geometry": { "type": "Point", "coordinates": [ -8.008895, 12.597871 ] } },
{ "type": "Feature", "properties": { "osm_id": -1215237707.000000, "timestamp": null, "name": "BACO DJICORONI D", "type": "school" }, "geometry": { "type": "Point", "coordinates": [ -8.00875, 12.597903 ] } },
{ "type": "Feature", "properties": { "osm_id": -1215237706.000000, "timestamp": null, "name": "BACO DJICORONI E", "type": "school" }, "geometry": { "type": "Point", "coordinates": [ -8.0098, 12.59805 ] } },
{ "type": "Feature", "properties": { "osm_id": -1215237705.000000, "timestamp": null, "name": "BACO DJICORONI I", "type": "school" }, "geometry": { "type": "Point", "coordinates": [ -8.01195, 12.5995 ] } },
{ "type": "Feature", "properties": { "osm_id": -1215237704.000000, "timestamp": null, "name": "BACO DJICORONI II", "type": "school" }, "geometry": { "type": "Point", "coordinates": [ -8.01215, 12.599283 ] } },
{ "type": "Feature", "properties": { "osm_id": -1215237703.000000, "timestamp": null, "name": "BACO DJICORONI IV", "type": "school" }, "geometry": { "type": "Point", "coordinates": [ -8.02875, 12.599233 ] } },
{ "type": "Feature", "properties": { "osm_id": -1215237702.000000, "timestamp": null, "name": "BATENIN DIARRA", "type": "school" }, "geometry": { "type": "Point", "coordinates": [ -7.9896, 12.59563 ] } },
{ "type": "Feature", "properties": { "osm_id": -1215237701.000000, "timestamp": null, "name": "BENKAN", "type": "school" }, "geometry": { "type": "Point", "coordinates": [ -8.001763, 12.58471 ] } },
{ "type": "Feature", "properties": { "osm_id": -1215237700.000000, "timestamp": null, "name": "BENKAN", "type": "school" }, "geometry": { "type": "Point", "coordinates": [ -8.002006, 12.584787 ] } },
{ "type": "Feature", "properties": { "osm_id": -1215237699.000000, "timestamp": null, "name": "BIA [1er C]", "type": "school" }, "geometry": { "type": "Point", "coordinates": [ -7.99972, 12.5989 ] } },
{ "type": "Feature", "properties": { "osm_id": -1215237698.000000, "timestamp": null, "name": "BIA [2ème C]", "type": "school" }, "geometry": { "type": "Point", "coordinates": [ -7.99972, 12.5989 ] } },
{ "type": "Feature", "properties": { "osm_id": -1215237697.000000, "timestamp": null, "name": "BINTA BARRY [1er C]", "type": "school" }, "geometry": { "type": "Point", "coordinates": [ -8.00734, 12.59849 ] } },
{ "type": "Feature", "properties": { "osm_id": -1215237696.000000, "timestamp": null, "name": "BINTA BARRY [2ème C]", "type": "school" }, "geometry": { "type": "Point", "coordinates": [ -8.00938, 12.59827 ] } },
{ "type": "Feature", "properties": { "osm_id": -1215237695.000000, "timestamp": null, "name": "BIRAMA BALLO [1er C]", "type": "school" }, "geometry": { "type": "Point", "coordinates": [ -8.0119, 12.59871 ] } },
{ "type": "Feature", "properties": { "osm_id": -1215237694.000000, "timestamp": null, "name": "BIRAMA BALLO [2ème C]", "type": "school" }, "geometry": { "type": "Point", "coordinates": [ -8.011917, 12.598733 ] } },
{ "type": "Feature", "properties": { "osm_id": -1215237693.000000, "timestamp": null, "name": "BOUBACAR TRAORE", "type": "school" }, "geometry": { "type": "Point", "coordinates": [ -8.00335, 12.586833 ] } },
{ "type": "Feature", "properties": { "osm_id": -1215237692.000000, "timestamp": null, "name": "BRAHIMA MAKADJI [1er C]", "type": "school" }, "geometry": { "type": "Point", "coordinates": [ -7.98046, 12.57618 ] } },
{ "type": "Feature", "properties": { "osm_id": -1215237691.000000, "timestamp": null, "name": "BRAHIMA MAKADJI [2ème C]", "type": "school" }, "geometry": { "type": "Point", "coordinates": [ -7.98046, 12.57618 ] } },
{ "type": "Feature", "properties": { "osm_id": -1215237690.000000, "timestamp": null, "name": "CHATEAU BRIAND [1er C]", "type": "school" }, "geometry": { "type": "Point", "coordinates": [ -7.98472, 12.563044 ] } },
{ "type": "Feature", "properties": { "osm_id": -1215237689.000000, "timestamp": null, "name": "CHATEAU BRIAND [2ème C]", "type": "school" }, "geometry": { "type": "Point", "coordinates": [ -7.984603, 12.563108 ] } },
{ "type": "Feature", "properties": { "osm_id": -1215237688.000000, "timestamp": null, "name": "COLLEGE OUMAR BAH [1er C]", "type": "school" }, "geometry": { "type": "Point", "coordinates": [ -7.987742, 12.562864 ] } },
{ "type": "Feature", "properties": { "osm_id": -1215237687.000000, "timestamp": null, "name": "COLLEGE OUMAR BAH [2ème C]", "type": "school" }, "geometry": { "type": "Point", "coordinates": [ -7.987802, 12.562845 ] } },
{ "type": "Feature", "properties": { "osm_id": -1215237685.000000, "timestamp": null, "name": "COLLEGE École privée ESPERANCE [2ème C]", "type": "school" }, "geometry": { "type": "Point", "coordinates": [ -8.023466, 12.592817 ] } },
{ "type": "Feature", "properties": { "osm_id": -1215237684.000000, "timestamp": null, "name": "COMPLEXE SCOLAIRE SENIDIA", "type": "school" }, "geometry": { "type": "Point", "coordinates": [ -7.981311, 12.566907 ] } },
{ "type": "Feature", "properties": { "osm_id": -1215237683.000000, "timestamp": null, "name": "COMPLEXE SCOLAIRE SENIDIA", "type": "school" }, "geometry": { "type": "Point", "coordinates": [ -7.981433, 12.566883 ] } },
{ "type": "Feature", "properties": { "osm_id": -1215237682.000000, "timestamp": null, "name": "CONCORDE SISSOKO", "type": "school" }, "geometry": { "type": "Point", "coordinates": [ -7.987, 12.559 ] } },
{ "type": "Feature", "properties": { "osm_id": -1215237681.000000, "timestamp": null, "name": "coopérative ASG [1er C]", "type": "school" }, "geometry": { "type": "Point", "coordinates": [ -8.005539, 12.590079 ] } },
{ "type": "Feature", "properties": { "osm_id": -1215237679.000000, "timestamp": null, "name": "COURS MATTA [1er C]", "type": "school" }, "geometry": { "type": "Point", "coordinates": [ -7.999067, 12.5614 ] } },
{ "type": "Feature", "properties": { "osm_id": -1215237678.000000, "timestamp": null, "name": "COURS MATTA [2ème C]", "type": "school" }, "geometry": { "type": "Point", "coordinates": [ -7.999129, 12.561398 ] } },
{ "type": "Feature", "properties": { "osm_id": -1215237677.000000, "timestamp": null, "name": "DABOLA", "type": "school" }, "geometry": { "type": "Point", "coordinates": [ -8.003222, 12.595275 ] } },
{ "type": "Feature", "properties": { "osm_id": -1215237676.000000, "timestamp": null, "name": "DABOLA", "type": "school" }, "geometry": { "type": "Point", "coordinates": [ -8.003417, 12.595267 ] } },
{ "type": "Feature", "properties": { "osm_id": -1215237675.000000, "timestamp": null, "name": "DANAYA [1er C]", "type": "school" }, "geometry": { "type": "Point", "coordinates": [ -7.983566, 12.601374 ] } },
{ "type": "Feature", "properties": { "osm_id": -1215237674.000000, "timestamp": null, "name": "DANAYA [2ème C]", "type": "school" }, "geometry": { "type": "Point", "coordinates": [ -7.983566, 12.601351 ] } },
{ "type": "Feature", "properties": { "osm_id": -1215237665.000000, "timestamp": null, "name": "DAOUDABOUGOU I", "type": "school" }, "geometry": { "type": "Point", "coordinates": [ -7.980184, 12.59578 ] } },
{ "type": "Feature", "properties": { "osm_id": -1215237664.000000, "timestamp": null, "name": "DAOUDABOUGOU II", "type": "school" }, "geometry": { "type": "Point", "coordinates": [ -7.980455, 12.595555 ] } },
{ "type": "Feature", "properties": { "osm_id": -1215236263.000000, "timestamp": null, "name": "DAOUDABOUGOU III", "type": "school" }, "geometry": { "type": "Point", "coordinates": [ -7.980176, 12.595937 ] } },
{ "type": "Feature", "properties": { "osm_id": -1215236262.000000, "timestamp": null, "name": "DAOUDABOUGOU IV", "type": "school" }, "geometry": { "type": "Point", "coordinates": [ -7.979895, 12.595544 ] } },
{ "type": "Feature", "properties": { "osm_id": -1215236261.000000, "timestamp": null, "name": "DINE WAL ADABOU [1er C]", "type": "school" }, "geometry": { "type": "Point", "coordinates": [ -7.982067, 12.605856 ] } },
{ "type": "Feature", "properties": { "osm_id": -1215236260.000000, "timestamp": null, "name": "DINE WAL ADABOU [2ème C]", "type": "school" }, "geometry": { "type": "Point", "coordinates": [ -7.982067, 12.605873 ] } },
{ "type": "Feature", "properties": { "osm_id": -1215236259.000000, "timestamp": null, "name": "DIORO", "type": "school" }, "geometry": { "type": "Point", "coordinates": [ -7.98755, 12.603383 ] } },
{ "type": "Feature", "properties": { "osm_id": -1215236258.000000, "timestamp": null, "name": "DJIGUIYA", "type": "school" }, "geometry": { "type": "Point", "coordinates": [ -8.00623, 12.60172 ] } },
{ "type": "Feature", "properties": { "osm_id": -1215236257.000000, "timestamp": null, "name": "DJIGUIYA", "type": "school" }, "geometry": { "type": "Point", "coordinates": [ -8.00623, 12.60172 ] } },
{ "type": "Feature", "properties": { "osm_id": -1215236256.000000, "timestamp": null, "name": "DJIGUIYA", "type": "school" }, "geometry": { "type": "Point", "coordinates": [ -8.00623, 12.60172 ] } },
{ "type": "Feature", "properties": { "osm_id": -1215236255.000000, "timestamp": null, "name": "DONGO", "type": "school" }, "geometry": { "type": "Point", "coordinates": [ -7.990583, 12.604447 ] } },
{ "type": "Feature", "properties": { "osm_id": -1215236254.000000, "timestamp": null, "name": "DONGO", "type": "school" }, "geometry": { "type": "Point", "coordinates": [ -7.990583, 12.604426 ] } },
{ "type": "Feature", "properties": { "osm_id": -1215236253.000000, "timestamp": null, "name": "École DJITOUMOU", "type": "school" }, "geometry": { "type": "Point", "coordinates": [ -7.99988, 12.569091 ] } },
{ "type": "Feature", "properties": { "osm_id": -1215236252.000000, "timestamp": null, "name": "École DJITOUMOU", "type": "school" }, "geometry": { "type": "Point", "coordinates": [ -7.999817, 12.569117 ] } },
{ "type": "Feature", "properties": { "osm_id": -1215236251.000000, "timestamp": null, "name": "École privée FODE KANTE", "type": "school" }, "geometry": { "type": "Point", "coordinates": [ -8.01314, 12.60263 ] } },
{ "type": "Feature", "properties": { "osm_id": -1215236250.000000, "timestamp": null, "name": "École privée FODE KANTE", "type": "school" }, "geometry": { "type": "Point", "coordinates": [ -8.01314, 12.60263 ] } },
{ "type": "Feature", "properties": { "osm_id": -1215236247.000000, "timestamp": null, "name": "École privée LAROUSSE", "type": "school" }, "geometry": { "type": "Point", "coordinates": [ -7.993483, 12.553733 ] } },
{ "type": "Feature", "properties": { "osm_id": -1215236246.000000, "timestamp": null, "name": "EFEK [1er C]", "type": "school" }, "geometry": { "type": "Point", "coordinates": [ -7.98675, 12.59 ] } },
{ "type": "Feature", "properties": { "osm_id": -1215236245.000000, "timestamp": null, "name": "EFEK [2ème C]", "type": "school" }, "geometry": { "type": "Point", "coordinates": [ -7.98675, 12.59 ] } },
{ "type": "Feature", "properties": { "osm_id": -1215236244.000000, "timestamp": null, "name": "EFET [1er C]", "type": "school" }, "geometry": { "type": "Point", "coordinates": [ -8.002933, 12.6041 ] } },
{ "type": "Feature", "properties": { "osm_id": -1215236243.000000, "timestamp": null, "name": "EFET [2ème C]", "type": "school" }, "geometry": { "type": "Point", "coordinates": [ -8.002933, 12.6041 ] } },
{ "type": "Feature", "properties": { "osm_id": -1215236242.000000, "timestamp": null, "name": "EL MOHAMEDIYA [1er C]", "type": "school" }, "geometry": { "type": "Point", "coordinates": [ -8.001883, 12.612417 ] } },
{ "type": "Feature", "properties": { "osm_id": -1215236241.000000, "timestamp": null, "name": "EL MOHAMEDIYA [2ème C]", "type": "school" }, "geometry": { "type": "Point", "coordinates": [ -8.001883, 12.612417 ] } },
{ "type": "Feature", "properties": { "osm_id": -1215236240.000000, "timestamp": null, "name": "ESPOIR [1er C]", "type": "school" }, "geometry": { "type": "Point", "coordinates": [ -7.99615, 12.600071 ] } },
{ "type": "Feature", "properties": { "osm_id": -1215236239.000000, "timestamp": null, "name": "ESPOIR [2ème C]", "type": "school" }, "geometry": { "type": "Point", "coordinates": [ -7.99615, 12.600053 ] } },
{ "type": "Feature", "properties": { "osm_id": -1215236238.000000, "timestamp": null, "name": "EXPERIENCE", "type": "school" }, "geometry": { "type": "Point", "coordinates": [ -7.99043, 12.5921 ] } },
{ "type": "Feature", "properties": { "osm_id": -1215236237.000000, "timestamp": null, "name": "EXPERIENCE", "type": "school" }, "geometry": { "type": "Point", "coordinates": [ -7.99043, 12.5921 ] } },
{ "type": "Feature", "properties": { "osm_id": -1215236236.000000, "timestamp": null, "name": "FILANY LASSINA [1er C]", "type": "school" }, "geometry": { "type": "Point", "coordinates": [ -7.987083, 12.57625 ] } },
{ "type": "Feature", "properties": { "osm_id": -1215236235.000000, "timestamp": null, "name": "FILANY LASSINA [2ème C]", "type": "school" }, "geometry": { "type": "Point", "coordinates": [ -7.987083, 12.57625 ] } },
{ "type": "Feature", "properties": { "osm_id": -1215236234.000000, "timestamp": null, "name": "FRANCOIS MITTERAND", "type": "school" }, "geometry": { "type": "Point", "coordinates": [ -8.015117, 12.590217 ] } },
{ "type": "Feature", "properties": { "osm_id": -1215236233.000000, "timestamp": null, "name": "FRANCOIS MITTERAND", "type": "school" }, "geometry": { "type": "Point", "coordinates": [ -8.015445, 12.590121 ] } },
{ "type": "Feature", "properties": { "osm_id": -1215236232.000000, "timestamp": null, "name": "FRATERNITE [1er C]", "type": "school" }, "geometry": { "type": "Point", "coordinates": [ -8.024983, 12.599433 ] } },
{ "type": "Feature", "properties": { "osm_id": -1215236231.000000, "timestamp": null, "name": "FRATERNITE [2ème C]", "type": "school" }, "geometry": { "type": "Point", "coordinates": [ -8.024983, 12.599433 ] } },
{ "type": "Feature", "properties": { "osm_id": -1215236230.000000, "timestamp": null, "name": "HOGON [1er C]", "type": "school" }, "geometry": { "type": "Point", "coordinates": [ -8.009909, 12.592236 ] } },
{ "type": "Feature", "properties": { "osm_id": -1215236229.000000, "timestamp": null, "name": "HOGON [2ème C]", "type": "school" }, "geometry": { "type": "Point", "coordinates": [ -8.0099, 12.592278 ] } },
{ "type": "Feature", "properties": { "osm_id": -1215236228.000000, "timestamp": null, "name": "HUMANITE [1er C]", "type": "school" }, "geometry": { "type": "Point", "coordinates": [ -8.001492, 12.563582 ] } },
{ "type": "Feature", "properties": { "osm_id": -1215236227.000000, "timestamp": null, "name": "HUMANITE [2ème C]", "type": "school" }, "geometry": { "type": "Point", "coordinates": [ -8.00141, 12.56358 ] } },
{ "type": "Feature", "properties": { "osm_id": -1215236226.000000, "timestamp": null, "name": "INSTITUT SACRE COEUR [1er C]", "type": "school" }, "geometry": { "type": "Point", "coordinates": [ -8.026283, 12.600833 ] } },
{ "type": "Feature", "properties": { "osm_id": -1215236225.000000, "timestamp": null, "name": "INSTITUT SACRE COEUR [2ème C]", "type": "school" }, "geometry": { "type": "Point", "coordinates": [ -8.026283, 12.600833 ] } },
{ "type": "Feature", "properties": { "osm_id": -1215236224.000000, "timestamp": null, "name": "JEAN MARIE CISSE [1er C]", "type": "school" }, "geometry": { "type": "Point", "coordinates": [ -7.988883, 12.56785 ] } },
{ "type": "Feature", "properties": { "osm_id": -1215236223.000000, "timestamp": null, "name": "JEAN MARIE CISSE [2ème C]", "type": "school" }, "geometry": { "type": "Point", "coordinates": [ -7.98935, 12.567633 ] } },
{ "type": "Feature", "properties": { "osm_id": -1215236222.000000, "timestamp": null, "name": "JEAN PIAGET", "type": "school" }, "geometry": { "type": "Point", "coordinates": [ -8.01774, 12.5792 ] } },
{ "type": "Feature", "properties": { "osm_id": -1215236221.000000, "timestamp": null, "name": "JIGIYA [1er C]", "type": "school" }, "geometry": { "type": "Point", "coordinates": [ -8.006183, 12.601767 ] } },
{ "type": "Feature", "properties": { "osm_id": -1215236220.000000, "timestamp": null, "name": "JIGIYA [2ème C]", "type": "school" }, "geometry": { "type": "Point", "coordinates": [ -8.006183, 12.601767 ] } },
{ "type": "Feature", "properties": { "osm_id": -1215236219.000000, "timestamp": null, "name": "KALABAN COURA SUD E", "type": "school" }, "geometry": { "type": "Point", "coordinates": [ -8.00039, 12.561502 ] } },
{ "type": "Feature", "properties": { "osm_id": -1215236218.000000, "timestamp": null, "name": "KALABAN COURA SUD IV", "type": "school" }, "geometry": { "type": "Point", "coordinates": [ -8.000454, 12.561565 ] } },
{ "type": "Feature", "properties": { "osm_id": -1215236217.000000, "timestamp": null, "name": "KALABAN SUD A", "type": "school" }, "geometry": { "type": "Point", "coordinates": [ -8.00051, 12.561566 ] } },
{ "type": "Feature", "properties": { "osm_id": -1215236216.000000, "timestamp": null, "name": "KALABAN SUD B", "type": "school" }, "geometry": { "type": "Point", "coordinates": [ -8.000403, 12.561564 ] } },
{ "type": "Feature", "properties": { "osm_id": -1215236215.000000, "timestamp": null, "name": "KALABAN SUD C", "type": "school" }, "geometry": { "type": "Point", "coordinates": [ -8.000451, 12.561489 ] } },
{ "type": "Feature", "properties": { "osm_id": -1215236214.000000, "timestamp": null, "name": "KALABAN SUD D", "type": "school" }, "geometry": { "type": "Point", "coordinates": [ -8.000556, 12.561532 ] } },
{ "type": "Feature", "properties": { "osm_id": -1215236213.000000, "timestamp": null, "name": "KALABAN SUD I", "type": "school" }, "geometry": { "type": "Point", "coordinates": [ -8.000352, 12.561528 ] } },
{ "type": "Feature", "properties": { "osm_id": -1215236212.000000, "timestamp": null, "name": "KALABAN SUD II", "type": "school" }, "geometry": { "type": "Point", "coordinates": [ -8.000472, 12.561516 ] } },
{ "type": "Feature", "properties": { "osm_id": -1215236211.000000, "timestamp": null, "name": "KALABAN SUD III", "type": "school" }, "geometry": { "type": "Point", "coordinates": [ -8.000437, 12.561606 ] } },
{ "type": "Feature", "properties": { "osm_id": -1215236210.000000, "timestamp": null, "name": "KALHID BOUN WALID [1er C]", "type": "school" }, "geometry": { "type": "Point", "coordinates": [ -7.99138, 12.57692 ] } },
{ "type": "Feature", "properties": { "osm_id": -1215236209.000000, "timestamp": null, "name": "KALHID BOUN WALID [2ème C]", "type": "school" }, "geometry": { "type": "Point", "coordinates": [ -7.99138, 12.57692 ] } },
{ "type": "Feature", "properties": { "osm_id": -1215236208.000000, "timestamp": null, "name": "KANY TRAORE", "type": "school" }, "geometry": { "type": "Point", "coordinates": [ -7.993717, 12.580733 ] } },
{ "type": "Feature", "properties": { "osm_id": -1215236207.000000, "timestamp": null, "name": "KANY TRAORE", "type": "school" }, "geometry": { "type": "Point", "coordinates": [ -7.993717, 12.580733 ] } },
{ "type": "Feature", "properties": { "osm_id": -1215236206.000000, "timestamp": null, "name": "KESSE", "type": "school" }, "geometry": { "type": "Point", "coordinates": [ -7.99745, 12.60204 ] } },
{ "type": "Feature", "properties": { "osm_id": -1215236205.000000, "timestamp": null, "name": "KOFAN [1er C]", "type": "school" }, "geometry": { "type": "Point", "coordinates": [ -7.99995, 12.5853 ] } },
{ "type": "Feature", "properties": { "osm_id": -1215236204.000000, "timestamp": null, "name": "KOFAN [2ème C]", "type": "school" }, "geometry": { "type": "Point", "coordinates": [ -7.99998, 12.58532 ] } },
{ "type": "Feature", "properties": { "osm_id": -1215236203.000000, "timestamp": null, "name": "KOUMBA DIAKITE [1er C]", "type": "school" }, "geometry": { "type": "Point", "coordinates": [ -7.99305, 12.57728 ] } },
{ "type": "Feature", "properties": { "osm_id": -1215236202.000000, "timestamp": null, "name": "KOUMBA DIAKITE [2ème C]", "type": "school" }, "geometry": { "type": "Point", "coordinates": [ -7.99305, 12.57728 ] } },
{ "type": "Feature", "properties": { "osm_id": -1215236201.000000, "timestamp": null, "name": "LA PAIX [1er C]", "type": "school" }, "geometry": { "type": "Point", "coordinates": [ -7.992813, 12.614885 ] } },
{ "type": "Feature", "properties": { "osm_id": -1215236200.000000, "timestamp": null, "name": "LA PAIX [2ème C]", "type": "school" }, "geometry": { "type": "Point", "coordinates": [ -7.992698, 12.614711 ] } },
{ "type": "Feature", "properties": { "osm_id": -1215236199.000000, "timestamp": null, "name": "LA SAGESSE", "type": "school" }, "geometry": { "type": "Point", "coordinates": [ -8.00096, 12.57776 ] } },
{ "type": "Feature", "properties": { "osm_id": -1215236198.000000, "timestamp": null, "name": "LA SOURCE [1er C]", "type": "school" }, "geometry": { "type": "Point", "coordinates": [ -7.985702, 12.602707 ] } },
{ "type": "Feature", "properties": { "osm_id": -1215236197.000000, "timestamp": null, "name": "LA SOURCE [2ème C]", "type": "school" }, "geometry": { "type": "Point", "coordinates": [ -7.985707, 12.602552 ] } },
{ "type": "Feature", "properties": { "osm_id": -1215236196.000000, "timestamp": null, "name": "La Victoire [1er C]", "type": "school" }, "geometry": { "type": "Point", "coordinates": [ -7.979371, 12.598959 ] } },
{ "type": "Feature", "properties": { "osm_id": -1215236195.000000, "timestamp": null, "name": "La Victoire [2ème C]", "type": "school" }, "geometry": { "type": "Point", "coordinates": [ -7.979272, 12.598995 ] } },
{ "type": "Feature", "properties": { "osm_id": -1215236194.000000, "timestamp": null, "name": "LAC TELE [1er C]", "type": "school" }, "geometry": { "type": "Point", "coordinates": [ -7.990014, 12.561658 ] } },
{ "type": "Feature", "properties": { "osm_id": -1215236193.000000, "timestamp": null, "name": "LAC TELE [2ème C]", "type": "school" }, "geometry": { "type": "Point", "coordinates": [ -7.99007, 12.56164 ] } },
{ "type": "Feature", "properties": { "osm_id": -1215236192.000000, "timestamp": null, "name": "LAÏQUE ATT (KALABAN SUD) [1er C]", "type": "school" }, "geometry": { "type": "Point", "coordinates": [ -7.982847, 12.558408 ] } },
{ "type": "Feature", "properties": { "osm_id": -1215236191.000000, "timestamp": null, "name": "LAÏQUE ATT (KALABAN SUD) [2ème C]", "type": "school" }, "geometry": { "type": "Point", "coordinates": [ -7.98274, 12.55845 ] } },
{ "type": "Feature", "properties": { "osm_id": -1215236190.000000, "timestamp": null, "name": "LE MAIRE MAMADOU SIDIBE [1er C]", "type": "school" }, "geometry": { "type": "Point", "coordinates": [ -7.997517, 12.610404 ] } },
{ "type": "Feature", "properties": { "osm_id": -1215236189.000000, "timestamp": null, "name": "LE MAIRE MAMADOU SIDIBE [2ème C]", "type": "school" }, "geometry": { "type": "Point", "coordinates": [ -7.997516, 12.610379 ] } },
{ "type": "Feature", "properties": { "osm_id": -1215236188.000000, "timestamp": null, "name": "LE MANDING [1er C]", "type": "school" }, "geometry": { "type": "Point", "coordinates": [ -8.002, 12.608 ] } },
{ "type": "Feature", "properties": { "osm_id": -1215236187.000000, "timestamp": null, "name": "LE MANDING [2ème C]", "type": "school" }, "geometry": { "type": "Point", "coordinates": [ -8.002, 12.608 ] } },
{ "type": "Feature", "properties": { "osm_id": -1215236186.000000, "timestamp": null, "name": "LE NIGER [1er C]", "type": "school" }, "geometry": { "type": "Point", "coordinates": [ -8.002733, 12.615133 ] } },
{ "type": "Feature", "properties": { "osm_id": -1215236185.000000, "timestamp": null, "name": "LE NIGER [2ème C]", "type": "school" }, "geometry": { "type": "Point", "coordinates": [ -8.002733, 12.615133 ] } },
{ "type": "Feature", "properties": { "osm_id": -1215236184.000000, "timestamp": null, "name": "LES CASTORS [1er C]", "type": "school" }, "geometry": { "type": "Point", "coordinates": [ -7.996516, 12.610628 ] } },
{ "type": "Feature", "properties": { "osm_id": -1215236183.000000, "timestamp": null, "name": "LES CASTORS [2ème C]", "type": "school" }, "geometry": { "type": "Point", "coordinates": [ -7.996517, 12.610605 ] } },
{ "type": "Feature", "properties": { "osm_id": -1215236182.000000, "timestamp": null, "name": "LES ELUS de LA RENAISSANCE", "type": "school" }, "geometry": { "type": "Point", "coordinates": [ -8.022217, 12.601983 ] } },
{ "type": "Feature", "properties": { "osm_id": -1215236181.000000, "timestamp": null, "name": "LES ELUS de LA RENAISSANCE", "type": "school" }, "geometry": { "type": "Point", "coordinates": [ -8.022217, 12.601983 ] } },
{ "type": "Feature", "properties": { "osm_id": -1215236180.000000, "timestamp": null, "name": "LES MARTYRS [1er C]", "type": "school" }, "geometry": { "type": "Point", "coordinates": [ -7.996198, 12.619992 ] } },
{ "type": "Feature", "properties": { "osm_id": -1215236178.000000, "timestamp": null, "name": "LES ROSES", "type": "school" }, "geometry": { "type": "Point", "coordinates": [ -7.98064, 12.56401 ] } },
{ "type": "Feature", "properties": { "osm_id": -1215236177.000000, "timestamp": null, "name": "LES ROSES", "type": "school" }, "geometry": { "type": "Point", "coordinates": [ -7.980535, 12.564032 ] } },
{ "type": "Feature", "properties": { "osm_id": -1215236176.000000, "timestamp": null, "name": "Les SAVOIRS", "type": "school" }, "geometry": { "type": "Point", "coordinates": [ -8.030556, 12.591849 ] } },
{ "type": "Feature", "properties": { "osm_id": -1215236175.000000, "timestamp": null, "name": "LES SAVOIRS", "type": "school" }, "geometry": { "type": "Point", "coordinates": [ -8.030555, 12.591817 ] } },
{ "type": "Feature", "properties": { "osm_id": -1215236174.000000, "timestamp": null, "name": "L'HUMANISTE", "type": "school" }, "geometry": { "type": "Point", "coordinates": [ -7.981467, 12.602867 ] } },
{ "type": "Feature", "properties": { "osm_id": -1215236173.000000, "timestamp": null, "name": "LUMIERE", "type": "school" }, "geometry": { "type": "Point", "coordinates": [ -7.992767, 12.560067 ] } },
{ "type": "Feature", "properties": { "osm_id": -1215236172.000000, "timestamp": null, "name": "MAISON CORAN ET HADITH [1er C]", "type": "school" }, "geometry": { "type": "Point", "coordinates": [ -8.0089, 12.599417 ] } },
{ "type": "Feature", "properties": { "osm_id": -1215236171.000000, "timestamp": null, "name": "MAISON CORAN ET HADITH [2ème C]", "type": "school" }, "geometry": { "type": "Point", "coordinates": [ -8.0089, 12.599417 ] } },
{ "type": "Feature", "properties": { "osm_id": -1215236170.000000, "timestamp": null, "name": "MAMADOU TRAORE [1er C]", "type": "school" }, "geometry": { "type": "Point", "coordinates": [ -8.026631, 12.58977 ] } },
{ "type": "Feature", "properties": { "osm_id": -1215236169.000000, "timestamp": null, "name": "MAMADOU TRAORE [2ème C]", "type": "school" }, "geometry": { "type": "Point", "coordinates": [ -8.015948, 12.589674 ] } },
{ "type": "Feature", "properties": { "osm_id": -1215236168.000000, "timestamp": null, "name": "MAMELON", "type": "school" }, "geometry": { "type": "Point", "coordinates": [ -8.00019, 12.58785 ] } },
{ "type": "Feature", "properties": { "osm_id": -1215236167.000000, "timestamp": null, "name": "MARLIDEM [1er C]", "type": "school" }, "geometry": { "type": "Point", "coordinates": [ -7.987933, 12.58215 ] } },
{ "type": "Feature", "properties": { "osm_id": -1215236166.000000, "timestamp": null, "name": "MARLIDEM [2ème C]", "type": "school" }, "geometry": { "type": "Point", "coordinates": [ -7.987933, 12.58215 ] } },
{ "type": "Feature", "properties": { "osm_id": -1215236165.000000, "timestamp": null, "name": "MATIA", "type": "school" }, "geometry": { "type": "Point", "coordinates": [ -7.9967, 12.57785 ] } },
{ "type": "Feature", "properties": { "osm_id": -1215236164.000000, "timestamp": null, "name": "MEDERSA communautaire BACO DJICORONI ACI [1er C]", "type": "school" }, "geometry": { "type": "Point", "coordinates": [ -8.026628, 12.589727 ] } },
{ "type": "Feature", "properties": { "osm_id": -1215236043.000000, "timestamp": null, "name": "ALTINE SISSOKO", "type": "school" }, "geometry": { "type": "Point", "coordinates": [ -7.959267, 12.689033 ] } },
{ "type": "Feature", "properties": { "osm_id": -1215236042.000000, "timestamp": null, "name": "AMI FAYE", "type": "school" }, "geometry": { "type": "Point", "coordinates": [ -7.946533, 12.69075 ] } },
{ "type": "Feature", "properties": { "osm_id": -1215236041.000000, "timestamp": null, "name": "AMI FAYE", "type": "school" }, "geometry": { "type": "Point", "coordinates": [ -7.946533, 12.69075 ] } },
{ "type": "Feature", "properties": { "osm_id": -1215236040.000000, "timestamp": null, "name": "ASKIA MOHAMED", "type": "school" }, "geometry": { "type": "Point", "coordinates": [ -7.915267, 12.6779 ] } },
{ "type": "Feature", "properties": { "osm_id": -1215236039.000000, "timestamp": null, "name": "ASKIA MOHAMED", "type": "school" }, "geometry": { "type": "Point", "coordinates": [ -7.915267, 12.6779 ] } },
{ "type": "Feature", "properties": { "osm_id": -1215236038.000000, "timestamp": null, "name": "AWNOU DINE", "type": "school" }, "geometry": { "type": "Point", "coordinates": [ -7.958733, 12.676817 ] } },
{ "type": "Feature", "properties": { "osm_id": -1215236037.000000, "timestamp": null, "name": "BAHABEN SANTARA A", "type": "school" }, "geometry": { "type": "Point", "coordinates": [ -7.954883, 12.66785 ] } },
{ "type": "Feature", "properties": { "osm_id": -1215236036.000000, "timestamp": null, "name": "BAHABEN SANTARA B", "type": "school" }, "geometry": { "type": "Point", "coordinates": [ -7.954883, 12.66785 ] } },
{ "type": "Feature", "properties": { "osm_id": -1215236035.000000, "timestamp": null, "name": "BAHABEN SANTARA C", "type": "school" }, "geometry": { "type": "Point", "coordinates": [ -7.954883, 12.66785 ] } },
{ "type": "Feature", "properties": { "osm_id": -1215236034.000000, "timestamp": null, "name": "BAHABEN SANTARA D", "type": "school" }, "geometry": { "type": "Point", "coordinates": [ -7.954883, 12.66785 ] } },
{ "type": "Feature", "properties": { "osm_id": -1215236033.000000, "timestamp": null, "name": "BANAMBAISE [1er C]", "type": "school" }, "geometry": { "type": "Point", "coordinates": [ -7.936417, 12.687117 ] } },
{ "type": "Feature", "properties": { "osm_id": -1215236032.000000, "timestamp": null, "name": "BANAMBAISE [2ème C]", "type": "school" }, "geometry": { "type": "Point", "coordinates": [ -7.936417, 12.687117 ] } },
{ "type": "Feature", "properties": { "osm_id": -1215236031.000000, "timestamp": null, "name": "BANCONI [2ème C] I", "type": "school" }, "geometry": { "type": "Point", "coordinates": [ -7.96665, 12.67229 ] } },
{ "type": "Feature", "properties": { "osm_id": -1215236030.000000, "timestamp": null, "name": "BANCONI [2ème C] II", "type": "school" }, "geometry": { "type": "Point", "coordinates": [ -7.96665, 12.67229 ] } },
{ "type": "Feature", "properties": { "osm_id": -1215236029.000000, "timestamp": null, "name": "BANCONI [2ème C] III", "type": "school" }, "geometry": { "type": "Point", "coordinates": [ -7.96665, 12.67229 ] } },
{ "type": "Feature", "properties": { "osm_id": -1215236028.000000, "timestamp": null, "name": "BANCONI [2ème C] IV", "type": "school" }, "geometry": { "type": "Point", "coordinates": [ -7.96665, 12.67229 ] } },
{ "type": "Feature", "properties": { "osm_id": -1215236027.000000, "timestamp": null, "name": "BANCONI [2ème C] V", "type": "school" }, "geometry": { "type": "Point", "coordinates": [ -7.96665, 12.67229 ] } },
{ "type": "Feature", "properties": { "osm_id": -1215236026.000000, "timestamp": null, "name": "BANCONI A", "type": "school" }, "geometry": { "type": "Point", "coordinates": [ -7.95831, 12.6748 ] } },
{ "type": "Feature", "properties": { "osm_id": -1215236025.000000, "timestamp": null, "name": "BANCONI A", "type": "school" }, "geometry": { "type": "Point", "coordinates": [ -7.95831, 12.6748 ] } },
{ "type": "Feature", "properties": { "osm_id": -1215236024.000000, "timestamp": null, "name": "BANCONI B", "type": "school" }, "geometry": { "type": "Point", "coordinates": [ -7.966817, 12.672133 ] } },
{ "type": "Feature", "properties": { "osm_id": -1215236023.000000, "timestamp": null, "name": "BANCONI E", "type": "school" }, "geometry": { "type": "Point", "coordinates": [ -7.9544, 12.6782 ] } },
{ "type": "Feature", "properties": { "osm_id": -1215236022.000000, "timestamp": null, "name": "BANCONI FARADA", "type": "school" }, "geometry": { "type": "Point", "coordinates": [ -7.968483, 12.68835 ] } },
{ "type": "Feature", "properties": { "osm_id": -1215236021.000000, "timestamp": null, "name": "BANCONI PLATEAU B", "type": "school" }, "geometry": { "type": "Point", "coordinates": [ -7.96685, 12.67222 ] } },
{ "type": "Feature", "properties": { "osm_id": -1215236020.000000, "timestamp": null, "name": "BAZZI", "type": "school" }, "geometry": { "type": "Point", "coordinates": [ -7.954517, 12.67095 ] } },
{ "type": "Feature", "properties": { "osm_id": -1215236019.000000, "timestamp": null, "name": "BERCEAU DU SAVOIR", "type": "school" }, "geometry": { "type": "Point", "coordinates": [ -7.96856, 12.68796 ] } },
{ "type": "Feature", "properties": { "osm_id": -1215236018.000000, "timestamp": null, "name": "BOULKASSOUMBOUGOU [2ème C] I", "type": "school" }, "geometry": { "type": "Point", "coordinates": [ -7.92713, 12.67738 ] } },
{ "type": "Feature", "properties": { "osm_id": -1215236017.000000, "timestamp": null, "name": "BOULKASSOUMBOUGOU [2ème C] II", "type": "school" }, "geometry": { "type": "Point", "coordinates": [ -7.92713, 12.67738 ] } },
{ "type": "Feature", "properties": { "osm_id": -1215236016.000000, "timestamp": null, "name": "BOULKASSOUMBOUGOU [2ème C] III", "type": "school" }, "geometry": { "type": "Point", "coordinates": [ -7.92713, 12.67738 ] } },
{ "type": "Feature", "properties": { "osm_id": -1215236015.000000, "timestamp": null, "name": "BOULKASSOUMBOUGOU [2ème C] IV", "type": "school" }, "geometry": { "type": "Point", "coordinates": [ -7.92713, 12.67738 ] } },
{ "type": "Feature", "properties": { "osm_id": -1215236014.000000, "timestamp": null, "name": "BOULKASSOUMBOUGOU A", "type": "school" }, "geometry": { "type": "Point", "coordinates": [ -7.92713, 12.67738 ] } },
{ "type": "Feature", "properties": { "osm_id": -1215236013.000000, "timestamp": null, "name": "BOULKASSOUMBOUGOU B", "type": "school" }, "geometry": { "type": "Point", "coordinates": [ -7.92713, 12.67738 ] } },
{ "type": "Feature", "properties": { "osm_id": -1215236012.000000, "timestamp": null, "name": "BOULKASSOUMBOUGOU C", "type": "school" }, "geometry": { "type": "Point", "coordinates": [ -7.92713, 12.67738 ] } },
{ "type": "Feature", "properties": { "osm_id": -1215236011.000000, "timestamp": null, "name": "BOULKASSOUMBOUGOU D", "type": "school" }, "geometry": { "type": "Point", "coordinates": [ -7.92713, 12.67738 ] } },
{ "type": "Feature", "properties": { "osm_id": -1215236010.000000, "timestamp": null, "name": "BOULKASSOUMBOUGOU E", "type": "school" }, "geometry": { "type": "Point", "coordinates": [ -7.92713, 12.67738 ] } },
{ "type": "Feature", "properties": { "osm_id": -1215236009.000000, "timestamp": null, "name": "BOULKASSOUMBOUGOU F", "type": "school" }, "geometry": { "type": "Point", "coordinates": [ -7.92713, 12.67738 ] } },
{ "type": "Feature", "properties": { "osm_id": -1215236008.000000, "timestamp": null, "name": "BOULKASSOUMBOUGOU V", "type": "school" }, "geometry": { "type": "Point", "coordinates": [ -7.92713, 12.67738 ] } },
{ "type": "Feature", "properties": { "osm_id": -1215236007.000000, "timestamp": null, "name": "COLLEGE AHMED BABA", "type": "school" }, "geometry": { "type": "Point", "coordinates": [ -7.95375, 12.67724 ] } },
{ "type": "Feature", "properties": { "osm_id": -1215236004.000000, "timestamp": null, "name": "COLLEGE HORIZON", "type": "school" }, "geometry": { "type": "Point", "coordinates": [ -7.95278, 12.663176 ] } },
{ "type": "Feature", "properties": { "osm_id": -1215236003.000000, "timestamp": null, "name": "COLLEGE HORIZON", "type": "school" }, "geometry": { "type": "Point", "coordinates": [ -7.952804, 12.663475 ] } },
{ "type": "Feature", "properties": { "osm_id": -1215236002.000000, "timestamp": null, "name": "COLLEGE École privée KOULOUFA I [1er C]", "type": "school" }, "geometry": { "type": "Point", "coordinates": [ -7.92812, 12.674395 ] } },
{ "type": "Feature", "properties": { "osm_id": -1215236001.000000, "timestamp": null, "name": "COLLEGE École privée KOULOUFA I [2ème C]", "type": "school" }, "geometry": { "type": "Point", "coordinates": [ -7.92812, 12.674395 ] } },
{ "type": "Feature", "properties": { "osm_id": -1215236000.000000, "timestamp": null, "name": "COMPLEXE SCOLAIRE FATOUMATA HAIDARA", "type": "school" }, "geometry": { "type": "Point", "coordinates": [ -7.95087, 12.69017 ] } },
{ "type": "Feature", "properties": { "osm_id": -1215235999.000000, "timestamp": null, "name": "COURS École privéeS BITON MAMARI COULIBALY", "type": "school" }, "geometry": { "type": "Point", "coordinates": [ -7.968843, 12.688123 ] } },
{ "type": "Feature", "properties": { "osm_id": -1215235998.000000, "timestamp": null, "name": "DEMESO", "type": "school" }, "geometry": { "type": "Point", "coordinates": [ -7.92051, 12.67383 ] } },
{ "type": "Feature", "properties": { "osm_id": -1215235997.000000, "timestamp": null, "name": "DEMESO", "type": "school" }, "geometry": { "type": "Point", "coordinates": [ -7.92051, 12.67383 ] } },
{ "type": "Feature", "properties": { "osm_id": -1215235996.000000, "timestamp": null, "name": "DIELIBOUGOU [2ème C] I", "type": "school" }, "geometry": { "type": "Point", "coordinates": [ -7.941499, 12.667265 ] } },
{ "type": "Feature", "properties": { "osm_id": -1215235995.000000, "timestamp": null, "name": "DIELIBOUGOU [2ème C] II", "type": "school" }, "geometry": { "type": "Point", "coordinates": [ -7.941129, 12.667412 ] } },
{ "type": "Feature", "properties": { "osm_id": -1215235994.000000, "timestamp": null, "name": "DIELIBOUGOU [2ème C] III", "type": "school" }, "geometry": { "type": "Point", "coordinates": [ -7.94156, 12.667133 ] } },
{ "type": "Feature", "properties": { "osm_id": -1215235993.000000, "timestamp": null, "name": "DIELIBOUGOU [2ème C] IV", "type": "school" }, "geometry": { "type": "Point", "coordinates": [ -7.941461, 12.666816 ] } },
{ "type": "Feature", "properties": { "osm_id": -1215235992.000000, "timestamp": null, "name": "DIELIBOUGOU A", "type": "school" }, "geometry": { "type": "Point", "coordinates": [ -7.940879, 12.667422 ] } },
{ "type": "Feature", "properties": { "osm_id": -1215235991.000000, "timestamp": null, "name": "DIELIBOUGOU B", "type": "school" }, "geometry": { "type": "Point", "coordinates": [ -7.941272, 12.667306 ] } },
{ "type": "Feature", "properties": { "osm_id": -1215235990.000000, "timestamp": null, "name": "DIELIBOUGOU C", "type": "school" }, "geometry": { "type": "Point", "coordinates": [ -7.941037, 12.6667 ] } },
{ "type": "Feature", "properties": { "osm_id": -1215235989.000000, "timestamp": null, "name": "DIELIBOUGOU D", "type": "school" }, "geometry": { "type": "Point", "coordinates": [ -7.940878, 12.667277 ] } },
{ "type": "Feature", "properties": { "osm_id": -1215235988.000000, "timestamp": null, "name": "DIELIBOUGOU E", "type": "school" }, "geometry": { "type": "Point", "coordinates": [ -7.941047, 12.667144 ] } },
{ "type": "Feature", "properties": { "osm_id": -1215235987.000000, "timestamp": null, "name": "DIELIBOUGOU F", "type": "school" }, "geometry": { "type": "Point", "coordinates": [ -7.941318, 12.667422 ] } },
{ "type": "Feature", "properties": { "osm_id": -1215235986.000000, "timestamp": null, "name": "DIOUMANZANA [2ème C] V", "type": "school" }, "geometry": { "type": "Point", "coordinates": [ -7.94315, 12.6787 ] } },
{ "type": "Feature", "properties": { "osm_id": -1215235985.000000, "timestamp": null, "name": "DIOUMANZANA F", "type": "school" }, "geometry": { "type": "Point", "coordinates": [ -7.942661, 12.679307 ] } },
{ "type": "Feature", "properties": { "osm_id": -1215235984.000000, "timestamp": null, "name": "DIOUMANZANA [2ème C] I", "type": "school" }, "geometry": { "type": "Point", "coordinates": [ -7.94623, 12.69167 ] } },
{ "type": "Feature", "properties": { "osm_id": -1215235983.000000, "timestamp": null, "name": "DIOUMANZANA [2ème C] II", "type": "school" }, "geometry": { "type": "Point", "coordinates": [ -7.943924, 12.678972 ] } },
{ "type": "Feature", "properties": { "osm_id": -1215235982.000000, "timestamp": null, "name": "DIOUMANZANA [2ème C] III", "type": "school" }, "geometry": { "type": "Point", "coordinates": [ -7.943913, 12.678985 ] } },
{ "type": "Feature", "properties": { "osm_id": -1215235981.000000, "timestamp": null, "name": "DIOUMANZANA [2ème C] IV", "type": "school" }, "geometry": { "type": "Point", "coordinates": [ -7.94315, 12.6787 ] } },
{ "type": "Feature", "properties": { "osm_id": -1215235980.000000, "timestamp": null, "name": "DIOUMANZANA A", "type": "school" }, "geometry": { "type": "Point", "coordinates": [ -7.94679, 12.69146 ] } },
{ "type": "Feature", "properties": { "osm_id": -1215235979.000000, "timestamp": null, "name": "DIOUMANZANA B", "type": "school" }, "geometry": { "type": "Point", "coordinates": [ -7.94679, 12.69146 ] } },
{ "type": "Feature", "properties": { "osm_id": -1215235978.000000, "timestamp": null, "name": "DIOUMANZANA C", "type": "school" }, "geometry": { "type": "Point", "coordinates": [ -7.94679, 12.69146 ] } },
{ "type": "Feature", "properties": { "osm_id": -1215235977.000000, "timestamp": null, "name": "DIOUMANZANA D", "type": "school" }, "geometry": { "type": "Point", "coordinates": [ -7.942585, 12.679362 ] } },
{ "type": "Feature", "properties": { "osm_id": -1215235976.000000, "timestamp": null, "name": "DIOUMANZANA E", "type": "school" }, "geometry": { "type": "Point", "coordinates": [ -7.942581, 12.679316 ] } },
{ "type": "Feature", "properties": { "osm_id": -1215235975.000000, "timestamp": null, "name": "DIOUMANZANA G", "type": "school" }, "geometry": { "type": "Point", "coordinates": [ -7.942552, 12.679196 ] } },
{ "type": "Feature", "properties": { "osm_id": -1215235974.000000, "timestamp": null, "name": "DONISO [1er C]", "type": "school" }, "geometry": { "type": "Point", "coordinates": [ -7.92245, 12.67537 ] } },
{ "type": "Feature", "properties": { "osm_id": -1215235973.000000, "timestamp": null, "name": "DONISO [2ème C]", "type": "school" }, "geometry": { "type": "Point", "coordinates": [ -7.92245, 12.67537 ] } },
{ "type": "Feature", "properties": { "osm_id": -1215235972.000000, "timestamp": null, "name": "École de base privée HAIRE", "type": "school" }, "geometry": { "type": "Point", "coordinates": [ -7.94342, 12.68047 ] } },
{ "type": "Feature", "properties": { "osm_id": -1215235971.000000, "timestamp": null, "name": "École privée LA FRATERNITE", "type": "school" }, "geometry": { "type": "Point", "coordinates": [ -7.942113, 12.679846 ] } },
{ "type": "Feature", "properties": { "osm_id": -1215235970.000000, "timestamp": null, "name": "EL SHALOM", "type": "school" }, "geometry": { "type": "Point", "coordinates": [ -7.93655, 12.6788 ] } },
{ "type": "Feature", "properties": { "osm_id": -1215235969.000000, "timestamp": null, "name": "EL SHALON", "type": "school" }, "geometry": { "type": "Point", "coordinates": [ -7.93655, 12.67879 ] } },
{ "type": "Feature", "properties": { "osm_id": -1215235968.000000, "timestamp": null, "name": "ESPERANGE [1er C]", "type": "school" }, "geometry": { "type": "Point", "coordinates": [ -7.946799, 12.670529 ] } },
{ "type": "Feature", "properties": { "osm_id": -1215235967.000000, "timestamp": null, "name": "ESPERANGE [2ème C]", "type": "school" }, "geometry": { "type": "Point", "coordinates": [ -7.9468, 12.67051 ] } },
{ "type": "Feature", "properties": { "osm_id": -1215235966.000000, "timestamp": null, "name": "FADJIGUILA [2ème C] I", "type": "school" }, "geometry": { "type": "Point", "coordinates": [ -7.949432, 12.672946 ] } },
{ "type": "Feature", "properties": { "osm_id": -1215235965.000000, "timestamp": null, "name": "FADJIGUILA [2ème C] II", "type": "school" }, "geometry": { "type": "Point", "coordinates": [ -7.949306, 12.67298 ] } },
{ "type": "Feature", "properties": { "osm_id": -1215235964.000000, "timestamp": null, "name": "FADJIGUILA A", "type": "school" }, "geometry": { "type": "Point", "coordinates": [ -7.949475, 12.672853 ] } },
{ "type": "Feature", "properties": { "osm_id": -1215235963.000000, "timestamp": null, "name": "MEDERSA communautaire BACO DJICORONI ACI [2ème", "type": "school" }, "geometry": { "type": "Point", "coordinates": [ -8.026631, 12.589685 ] } },
{ "type": "Feature", "properties": { "osm_id": -1215235962.000000, "timestamp": null, "name": "MEDRESA A-NOUR EL ISLAM", "type": "school" }, "geometry": { "type": "Point", "coordinates": [ -7.99891, 12.5561 ] } },
{ "type": "Feature", "properties": { "osm_id": -1215235961.000000, "timestamp": null, "name": "MICHEL ALLAIRE [1er C]", "type": "school" }, "geometry": { "type": "Point", "coordinates": [ -7.9757, 12.604383 ] } },
{ "type": "Feature", "properties": { "osm_id": -1215235960.000000, "timestamp": null, "name": "MICHEL ALLAIRE [2ème C]", "type": "school" }, "geometry": { "type": "Point", "coordinates": [ -7.9757, 12.604383 ] } },
{ "type": "Feature", "properties": { "osm_id": -1215235959.000000, "timestamp": null, "name": "MICHELLE POULTON [1er C]", "type": "school" }, "geometry": { "type": "Point", "coordinates": [ -7.98238, 12.57629 ] } },
{ "type": "Feature", "properties": { "osm_id": -1215235958.000000, "timestamp": null, "name": "MICHELLE POULTON [2ème C]", "type": "school" }, "geometry": { "type": "Point", "coordinates": [ -7.98238, 12.57629 ] } },
{ "type": "Feature", "properties": { "osm_id": -1215235957.000000, "timestamp": null, "name": "N'DJI YACOUBA TRAORE", "type": "school" }, "geometry": { "type": "Point", "coordinates": [ -7.982425, 12.568488 ] } },
{ "type": "Feature", "properties": { "osm_id": -1215235956.000000, "timestamp": null, "name": "N'DJI YACOUBA TRAORE", "type": "school" }, "geometry": { "type": "Point", "coordinates": [ -7.9823, 12.5685 ] } },
{ "type": "Feature", "properties": { "osm_id": -1215235955.000000, "timestamp": null, "name": "OUANAFRAN CAMARA", "type": "school" }, "geometry": { "type": "Point", "coordinates": [ -7.987983, 12.59675 ] } },
{ "type": "Feature", "properties": { "osm_id": -1215235954.000000, "timestamp": null, "name": "PEDAGOGUE [1er C]", "type": "school" }, "geometry": { "type": "Point", "coordinates": [ -7.997183, 12.579433 ] } },
{ "type": "Feature", "properties": { "osm_id": -1215235953.000000, "timestamp": null, "name": "PEDAGOGUE [2ème C]", "type": "school" }, "geometry": { "type": "Point", "coordinates": [ -7.997183, 12.579433 ] } },
{ "type": "Feature", "properties": { "osm_id": -1215235952.000000, "timestamp": null, "name": "PLANETE ENFANTS", "type": "school" }, "geometry": { "type": "Point", "coordinates": [ -7.991519, 12.554813 ] } },
{ "type": "Feature", "properties": { "osm_id": -1215235951.000000, "timestamp": null, "name": "PLANETE ENFANTS", "type": "school" }, "geometry": { "type": "Point", "coordinates": [ -7.9916, 12.55475 ] } },
{ "type": "Feature", "properties": { "osm_id": -1215235950.000000, "timestamp": null, "name": "École privée URANUS", "type": "school" }, "geometry": { "type": "Point", "coordinates": [ -7.98191, 12.58109 ] } },
{ "type": "Feature", "properties": { "osm_id": -1215235949.000000, "timestamp": null, "name": "RAVIN [1er C]", "type": "school" }, "geometry": { "type": "Point", "coordinates": [ -8.0042, 12.59227 ] } },
{ "type": "Feature", "properties": { "osm_id": -1215235948.000000, "timestamp": null, "name": "RAVIN [2ème C]", "type": "school" }, "geometry": { "type": "Point", "coordinates": [ -8.004199, 12.592249 ] } },
{ "type": "Feature", "properties": { "osm_id": -1215235947.000000, "timestamp": null, "name": "RENAISSANCE [1er C]", "type": "school" }, "geometry": { "type": "Point", "coordinates": [ -7.98353, 12.57667 ] } },
{ "type": "Feature", "properties": { "osm_id": -1215235946.000000, "timestamp": null, "name": "RENAISSANCE [2ème C]", "type": "school" }, "geometry": { "type": "Point", "coordinates": [ -7.98353, 12.57667 ] } },
{ "type": "Feature", "properties": { "osm_id": -1215235945.000000, "timestamp": null, "name": "RUTH [1er C]", "type": "school" }, "geometry": { "type": "Point", "coordinates": [ -7.976888, 12.605037 ] } },
{ "type": "Feature", "properties": { "osm_id": -1215235944.000000, "timestamp": null, "name": "RUTH [2ème C]", "type": "school" }, "geometry": { "type": "Point", "coordinates": [ -7.976888, 12.604766 ] } },
{ "type": "Feature", "properties": { "osm_id": -1215235943.000000, "timestamp": null, "name": "SABALIBOUGOU A", "type": "school" }, "geometry": { "type": "Point", "coordinates": [ -7.99393, 12.59342 ] } },
{ "type": "Feature", "properties": { "osm_id": -1215235942.000000, "timestamp": null, "name": "SABALIBOUGOU B", "type": "school" }, "geometry": { "type": "Point", "coordinates": [ -7.99393, 12.59342 ] } },
{ "type": "Feature", "properties": { "osm_id": -1215235941.000000, "timestamp": null, "name": "SABALIBOUGOU C", "type": "school" }, "geometry": { "type": "Point", "coordinates": [ -7.99393, 12.59342 ] } },
{ "type": "Feature", "properties": { "osm_id": -1215235940.000000, "timestamp": null, "name": "SABALIBOUGOU D", "type": "school" }, "geometry": { "type": "Point", "coordinates": [ -7.99393, 12.59342 ] } },
{ "type": "Feature", "properties": { "osm_id": -1215235939.000000, "timestamp": null, "name": "SABALIBOUGOU E", "type": "school" }, "geometry": { "type": "Point", "coordinates": [ -7.99393, 12.59342 ] } },
{ "type": "Feature", "properties": { "osm_id": -1215235938.000000, "timestamp": null, "name": "SABALIBOUGOU F", "type": "school" }, "geometry": { "type": "Point", "coordinates": [ -7.99393, 12.59342 ] } },
{ "type": "Feature", "properties": { "osm_id": -1215235937.000000, "timestamp": null, "name": "SABALIBOUGOU I", "type": "school" }, "geometry": { "type": "Point", "coordinates": [ -7.99393, 12.59342 ] } },
{ "type": "Feature", "properties": { "osm_id": -1215235936.000000, "timestamp": null, "name": "SABALIBOUGOU II", "type": "school" }, "geometry": { "type": "Point", "coordinates": [ -7.99393, 12.59342 ] } },
{ "type": "Feature", "properties": { "osm_id": -1215235935.000000, "timestamp": null, "name": "SABALIBOUGOU III", "type": "school" }, "geometry": { "type": "Point", "coordinates": [ -7.99393, 12.59342 ] } },
{ "type": "Feature", "properties": { "osm_id": -1215235934.000000, "timestamp": null, "name": "SABALIBOUGOU IV", "type": "school" }, "geometry": { "type": "Point", "coordinates": [ -7.99393, 12.59342 ] } },
{ "type": "Feature", "properties": { "osm_id": -1215235933.000000, "timestamp": null, "name": "SABALIBOUGOU V", "type": "school" }, "geometry": { "type": "Point", "coordinates": [ -7.99393, 12.59342 ] } },
{ "type": "Feature", "properties": { "osm_id": -1215235932.000000, "timestamp": null, "name": "SABILOU RACHAD [1er C]", "type": "school" }, "geometry": { "type": "Point", "coordinates": [ -7.981984, 12.561939 ] } },
{ "type": "Feature", "properties": { "osm_id": -1215235931.000000, "timestamp": null, "name": "SABILOU RACHAD [2ème C]", "type": "school" }, "geometry": { "type": "Point", "coordinates": [ -7.98187, 12.56194 ] } },
{ "type": "Feature", "properties": { "osm_id": -1215235930.000000, "timestamp": null, "name": "SABU NYUMAN [1er C]", "type": "school" }, "geometry": { "type": "Point", "coordinates": [ -7.985367, 12.604218 ] } },
{ "type": "Feature", "properties": { "osm_id": -1215235929.000000, "timestamp": null, "name": "SABU NYUMAN [2ème C]", "type": "school" }, "geometry": { "type": "Point", "coordinates": [ -7.985367, 12.604199 ] } },
{ "type": "Feature", "properties": { "osm_id": -1215235928.000000, "timestamp": null, "name": "SAINT JOSEPH [1er C]", "type": "school" }, "geometry": { "type": "Point", "coordinates": [ -7.990533, 12.555367 ] } },
{ "type": "Feature", "properties": { "osm_id": -1215235927.000000, "timestamp": null, "name": "SAINT JOSEPH [2ème C]", "type": "school" }, "geometry": { "type": "Point", "coordinates": [ -7.990678, 12.555301 ] } },
{ "type": "Feature", "properties": { "osm_id": -1215235926.000000, "timestamp": null, "name": "Saint Pierre", "type": "school" }, "geometry": { "type": "Point", "coordinates": [ -7.985366, 12.604179 ] } },
{ "type": "Feature", "properties": { "osm_id": -1215235925.000000, "timestamp": null, "name": "SAMBA KONARE [1er C]", "type": "school" }, "geometry": { "type": "Point", "coordinates": [ -7.999217, 12.607533 ] } },
{ "type": "Feature", "properties": { "osm_id": -1215235924.000000, "timestamp": null, "name": "SAMBA KONARE [2ème C]", "type": "school" }, "geometry": { "type": "Point", "coordinates": [ -7.999217, 12.607533 ] } },
{ "type": "Feature", "properties": { "osm_id": -1215235923.000000, "timestamp": null, "name": "SELECT [1er C]", "type": "school" }, "geometry": { "type": "Point", "coordinates": [ -7.99602, 12.58415 ] } },
{ "type": "Feature", "properties": { "osm_id": -1215235922.000000, "timestamp": null, "name": "SELECT [2ème C]", "type": "school" }, "geometry": { "type": "Point", "coordinates": [ -7.99602, 12.58415 ] } },
{ "type": "Feature", "properties": { "osm_id": -1215235921.000000, "timestamp": null, "name": "TANDINA", "type": "school" }, "geometry": { "type": "Point", "coordinates": [ -7.995383, 12.560917 ] } },
{ "type": "Feature", "properties": { "osm_id": -1215235920.000000, "timestamp": null, "name": "TATA [1er C]", "type": "school" }, "geometry": { "type": "Point", "coordinates": [ -7.99831, 12.59141 ] } },
{ "type": "Feature", "properties": { "osm_id": -1215235919.000000, "timestamp": null, "name": "TATA [2ème C]", "type": "school" }, "geometry": { "type": "Point", "coordinates": [ -7.99831, 12.591386 ] } },
{ "type": "Feature", "properties": { "osm_id": -1215235918.000000, "timestamp": null, "name": "TOMBOUCTOU", "type": "school" }, "geometry": { "type": "Point", "coordinates": [ -7.984117, 12.595817 ] } },
{ "type": "Feature", "properties": { "osm_id": -1215235917.000000, "timestamp": null, "name": "TOMBOUCTOU", "type": "school" }, "geometry": { "type": "Point", "coordinates": [ -7.99761, 12.56947 ] } },
{ "type": "Feature", "properties": { "osm_id": -1215235916.000000, "timestamp": null, "name": "TRAORE GROUPE SCOLAIRE [1er C]", "type": "school" }, "geometry": { "type": "Point", "coordinates": [ -8.0123, 12.59332 ] } },
{ "type": "Feature", "properties": { "osm_id": -1215235915.000000, "timestamp": null, "name": "TRAORE GROUPE SCOLAIRE [2ème C]", "type": "school" }, "geometry": { "type": "Point", "coordinates": [ -8.0122, 12.59321 ] } },
{ "type": "Feature", "properties": { "osm_id": -1215235914.000000, "timestamp": null, "name": "URANUS", "type": "school" }, "geometry": { "type": "Point", "coordinates": [ -7.98191, 12.58109 ] } },
{ "type": "Feature", "properties": { "osm_id": -1215235913.000000, "timestamp": null, "name": "YENA ISSA [1er C]", "type": "school" }, "geometry": { "type": "Point", "coordinates": [ -8.008833, 12.59765 ] } },
{ "type": "Feature", "properties": { "osm_id": -1215235912.000000, "timestamp": null, "name": "YENA ISSA [2ème C]", "type": "school" }, "geometry": { "type": "Point", "coordinates": [ -8.008833, 12.59765 ] } },
{ "type": "Feature", "properties": { "osm_id": -1215235763.000000, "timestamp": null, "name": "FADJIGUILA B", "type": "school" }, "geometry": { "type": "Point", "coordinates": [ -7.949408, 12.672867 ] } },
{ "type": "Feature", "properties": { "osm_id": -1215235762.000000, "timestamp": null, "name": "FADJIGUILA C", "type": "school" }, "geometry": { "type": "Point", "coordinates": [ -7.949265, 12.672899 ] } },
{ "type": "Feature", "properties": { "osm_id": -1215235761.000000, "timestamp": null, "name": "FADJIGUILA D", "type": "school" }, "geometry": { "type": "Point", "coordinates": [ -7.94931, 12.672845 ] } },
{ "type": "Feature", "properties": { "osm_id": -1215235760.000000, "timestamp": null, "name": "FAGUIMBA KAMISSOKO", "type": "school" }, "geometry": { "type": "Point", "coordinates": [ -7.97125, 12.681933 ] } },
{ "type": "Feature", "properties": { "osm_id": -1215235759.000000, "timestamp": null, "name": "FAGUIMBA KAMISSOKO", "type": "school" }, "geometry": { "type": "Point", "coordinates": [ -7.97125, 12.681933 ] } },
{ "type": "Feature", "properties": { "osm_id": -1215235758.000000, "timestamp": null, "name": "FAYA", "type": "school" }, "geometry": { "type": "Point", "coordinates": [ -7.95775, 12.652983 ] } },
{ "type": "Feature", "properties": { "osm_id": -1215235757.000000, "timestamp": null, "name": "GROUPE SCOLAIRE AWA SIMPARA [1er C]", "type": "school" }, "geometry": { "type": "Point", "coordinates": [ -7.942151, 12.679805 ] } },
{ "type": "Feature", "properties": { "osm_id": -1215235756.000000, "timestamp": null, "name": "GROUPE SCOLAIRE AWA SIMPARA [2ème C]", "type": "school" }, "geometry": { "type": "Point", "coordinates": [ -7.94216, 12.67979 ] } },
{ "type": "Feature", "properties": { "osm_id": -1215235755.000000, "timestamp": null, "name": "GROUPE SCOLAIRE École privée AMINATA HAIDARA", "type": "school" }, "geometry": { "type": "Point", "coordinates": [ -7.95534, 12.67846 ] } },
{ "type": "Feature", "properties": { "osm_id": -1215235754.000000, "timestamp": null, "name": "GUIDIMAGAN", "type": "school" }, "geometry": { "type": "Point", "coordinates": [ -7.93174, 12.67015 ] } },
{ "type": "Feature", "properties": { "osm_id": -1215235753.000000, "timestamp": null, "name": "GUIDIMAGAN", "type": "school" }, "geometry": { "type": "Point", "coordinates": [ -7.93174, 12.67015 ] } },
{ "type": "Feature", "properties": { "osm_id": -1215235752.000000, "timestamp": null, "name": "I.F.P.T [1er C]", "type": "school" }, "geometry": { "type": "Point", "coordinates": [ -7.92445, 12.67603 ] } },
{ "type": "Feature", "properties": { "osm_id": -1215235751.000000, "timestamp": null, "name": "I.F.P.T [2ème C]", "type": "school" }, "geometry": { "type": "Point", "coordinates": [ -7.92445, 12.67603 ] } },
{ "type": "Feature", "properties": { "osm_id": -1215235750.000000, "timestamp": null, "name": "INTEGRATION [1er C]", "type": "school" }, "geometry": { "type": "Point", "coordinates": [ -7.91755, 12.67864 ] } },
{ "type": "Feature", "properties": { "osm_id": -1215235749.000000, "timestamp": null, "name": "INTEGRATION [2ème C]", "type": "school" }, "geometry": { "type": "Point", "coordinates": [ -7.91755, 12.67864 ] } },
{ "type": "Feature", "properties": { "osm_id": -1215235748.000000, "timestamp": null, "name": "JEAN JACQUES ROUSSEAU", "type": "school" }, "geometry": { "type": "Point", "coordinates": [ -7.94806, 12.68595 ] } },
{ "type": "Feature", "properties": { "osm_id": -1215235747.000000, "timestamp": null, "name": "JIGISO", "type": "school" }, "geometry": { "type": "Point", "coordinates": [ -7.92386, 12.67355 ] } },
{ "type": "Feature", "properties": { "osm_id": -1215235746.000000, "timestamp": null, "name": "JIGIYA [1er C]", "type": "school" }, "geometry": { "type": "Point", "coordinates": [ -7.95753, 12.67362 ] } },
{ "type": "Feature", "properties": { "osm_id": -1215235745.000000, "timestamp": null, "name": "JIGIYA [2ème C]", "type": "school" }, "geometry": { "type": "Point", "coordinates": [ -7.95753, 12.67362 ] } },
{ "type": "Feature", "properties": { "osm_id": -1215235744.000000, "timestamp": null, "name": "K.K", "type": "school" }, "geometry": { "type": "Point", "coordinates": [ -7.96513, 12.66964 ] } },
{ "type": "Feature", "properties": { "osm_id": -1215235743.000000, "timestamp": null, "name": "KALANKADI", "type": "school" }, "geometry": { "type": "Point", "coordinates": [ -7.94257, 12.68504 ] } },
{ "type": "Feature", "properties": { "osm_id": -1215235742.000000, "timestamp": null, "name": "KALANSO.E.E [1er C]", "type": "school" }, "geometry": { "type": "Point", "coordinates": [ -7.946404, 12.670703 ] } },
{ "type": "Feature", "properties": { "osm_id": -1215235741.000000, "timestamp": null, "name": "KALANSO.E.E [2ème C]", "type": "school" }, "geometry": { "type": "Point", "coordinates": [ -7.9464, 12.67072 ] } },
{ "type": "Feature", "properties": { "osm_id": -1215235740.000000, "timestamp": null, "name": "KANI [1er C]", "type": "school" }, "geometry": { "type": "Point", "coordinates": [ -7.93796, 12.68622 ] } },
{ "type": "Feature", "properties": { "osm_id": -1215235739.000000, "timestamp": null, "name": "KANI [2ème C]", "type": "school" }, "geometry": { "type": "Point", "coordinates": [ -7.93796, 12.68622 ] } },
{ "type": "Feature", "properties": { "osm_id": -1215235738.000000, "timestamp": null, "name": "KARIBA BOÏTE [1er C]", "type": "school" }, "geometry": { "type": "Point", "coordinates": [ -7.9516, 12.67119 ] } },
{ "type": "Feature", "properties": { "osm_id": -1215235737.000000, "timestamp": null, "name": "KARIBA BOÏTE [2ème C]", "type": "school" }, "geometry": { "type": "Point", "coordinates": [ -7.9516, 12.671175 ] } },
{ "type": "Feature", "properties": { "osm_id": -1215235736.000000, "timestamp": null, "name": "KLEVIRE", "type": "school" }, "geometry": { "type": "Point", "coordinates": [ -7.93797, 12.6862 ] } },
{ "type": "Feature", "properties": { "osm_id": -1215235735.000000, "timestamp": null, "name": "KOROFINA SUD", "type": "school" }, "geometry": { "type": "Point", "coordinates": [ -7.95732, 12.65288 ] } },
{ "type": "Feature", "properties": { "osm_id": -1215235734.000000, "timestamp": null, "name": "KOROFINA SUD [2ème C]", "type": "school" }, "geometry": { "type": "Point", "coordinates": [ -7.95732, 12.65288 ] } },
{ "type": "Feature", "properties": { "osm_id": -1215235733.000000, "timestamp": null, "name": "L EDUCATEUR", "type": "school" }, "geometry": { "type": "Point", "coordinates": [ -7.9667, 12.66899 ] } },
{ "type": "Feature", "properties": { "osm_id": -1215235732.000000, "timestamp": null, "name": "LA N.E.SIDI [1er C]", "type": "school" }, "geometry": { "type": "Point", "coordinates": [ -7.9304, 12.66914 ] } },
{ "type": "Feature", "properties": { "osm_id": -1215235731.000000, "timestamp": null, "name": "LA SAGESSE [1er C]", "type": "school" }, "geometry": { "type": "Point", "coordinates": [ -7.948934, 12.67139 ] } },
{ "type": "Feature", "properties": { "osm_id": -1215235730.000000, "timestamp": null, "name": "LA SAGESSE [2ème C]", "type": "school" }, "geometry": { "type": "Point", "coordinates": [ -7.948933, 12.671433 ] } },
{ "type": "Feature", "properties": { "osm_id": -1215235729.000000, "timestamp": null, "name": "LADAMUBA", "type": "school" }, "geometry": { "type": "Point", "coordinates": [ -7.956883, 12.6806 ] } },
{ "type": "Feature", "properties": { "osm_id": -1215235728.000000, "timestamp": null, "name": "LE BELEDOUGOU", "type": "school" }, "geometry": { "type": "Point", "coordinates": [ -7.96591, 12.683515 ] } },
{ "type": "Feature", "properties": { "osm_id": -1215235727.000000, "timestamp": null, "name": "LE BELEDOUGOU", "type": "school" }, "geometry": { "type": "Point", "coordinates": [ -7.966024, 12.683409 ] } },
{ "type": "Feature", "properties": { "osm_id": -1215235726.000000, "timestamp": null, "name": "LE GUIDE [1er C]", "type": "school" }, "geometry": { "type": "Point", "coordinates": [ -7.952926, 12.679792 ] } },
{ "type": "Feature", "properties": { "osm_id": -1215235725.000000, "timestamp": null, "name": "LE GUIDE [2ème C]", "type": "school" }, "geometry": { "type": "Point", "coordinates": [ -7.952917, 12.679833 ] } },
{ "type": "Feature", "properties": { "osm_id": -1215235724.000000, "timestamp": null, "name": "LE NID DU BONHEUR", "type": "school" }, "geometry": { "type": "Point", "coordinates": [ -7.94615, 12.691883 ] } },
{ "type": "Feature", "properties": { "osm_id": -1215235723.000000, "timestamp": null, "name": "LES ETOILES [1er C]", "type": "school" }, "geometry": { "type": "Point", "coordinates": [ -7.93652, 12.668537 ] } },
{ "type": "Feature", "properties": { "osm_id": -1215235722.000000, "timestamp": null, "name": "LES ETOILES [2ème C]", "type": "school" }, "geometry": { "type": "Point", "coordinates": [ -7.93652, 12.66856 ] } },
{ "type": "Feature", "properties": { "osm_id": -1215235721.000000, "timestamp": null, "name": "LES FARANDOLES", "type": "school" }, "geometry": { "type": "Point", "coordinates": [ -7.95785, 12.666333 ] } },
{ "type": "Feature", "properties": { "osm_id": -1215235720.000000, "timestamp": null, "name": "LES JASMINS", "type": "school" }, "geometry": { "type": "Point", "coordinates": [ -7.94322, 12.67136 ] } },
{ "type": "Feature", "properties": { "osm_id": -1215235719.000000, "timestamp": null, "name": "MAHAD AL COURANE [1er C]", "type": "school" }, "geometry": { "type": "Point", "coordinates": [ -7.934966, 12.671635 ] } },
{ "type": "Feature", "properties": { "osm_id": -1215235718.000000, "timestamp": null, "name": "MAHAD AL COURANE [2ème C]", "type": "school" }, "geometry": { "type": "Point", "coordinates": [ -7.934967, 12.671667 ] } },
{ "type": "Feature", "properties": { "osm_id": -1215235717.000000, "timestamp": null, "name": "MAHAD AL OULOUM [1er C]", "type": "school" }, "geometry": { "type": "Point", "coordinates": [ -7.94682, 12.6704 ] } },
{ "type": "Feature", "properties": { "osm_id": -1215235716.000000, "timestamp": null, "name": "MAHAD AL OULOUM [2ème C]", "type": "school" }, "geometry": { "type": "Point", "coordinates": [ -7.94682, 12.67041 ] } },
{ "type": "Feature", "properties": { "osm_id": -1215235715.000000, "timestamp": null, "name": "MAHADOU OULOUMIDINI [1er C]", "type": "school" }, "geometry": { "type": "Point", "coordinates": [ -7.9586, 12.675967 ] } },
{ "type": "Feature", "properties": { "osm_id": -1215235714.000000, "timestamp": null, "name": "MAHADOU OULOUMIDINI [2ème C]", "type": "school" }, "geometry": { "type": "Point", "coordinates": [ -7.9586, 12.675967 ] } },
{ "type": "Feature", "properties": { "osm_id": -1215235713.000000, "timestamp": null, "name": "MAMADOU THIAM", "type": "school" }, "geometry": { "type": "Point", "coordinates": [ -7.938333, 12.669 ] } },
{ "type": "Feature", "properties": { "osm_id": -1215235712.000000, "timestamp": null, "name": "MARIDIE DIARRA [1er C]", "type": "school" }, "geometry": { "type": "Point", "coordinates": [ -7.958267, 12.670683 ] } },
{ "type": "Feature", "properties": { "osm_id": -1215235711.000000, "timestamp": null, "name": "MARIDIE DIARRA [2ème C]", "type": "school" }, "geometry": { "type": "Point", "coordinates": [ -7.958267, 12.670683 ] } },
{ "type": "Feature", "properties": { "osm_id": -1215235710.000000, "timestamp": null, "name": "MEKIN-SIKORO [2ème C] I", "type": "school" }, "geometry": { "type": "Point", "coordinates": [ -7.98657, 12.68212 ] } },
{ "type": "Feature", "properties": { "osm_id": -1215235709.000000, "timestamp": null, "name": "MEKIN-SIKORO [2ème C] II", "type": "school" }, "geometry": { "type": "Point", "coordinates": [ -7.98657, 12.68212 ] } },
{ "type": "Feature", "properties": { "osm_id": -1215235708.000000, "timestamp": null, "name": "MEKIN-SIKORO [2ème C] III", "type": "school" }, "geometry": { "type": "Point", "coordinates": [ -7.98657, 12.68212 ] } },
{ "type": "Feature", "properties": { "osm_id": -1215235707.000000, "timestamp": null, "name": "MEKIN-SIKORO [2ème C]IV", "type": "school" }, "geometry": { "type": "Point", "coordinates": [ -7.98657, 12.68212 ] } },
{ "type": "Feature", "properties": { "osm_id": -1215235706.000000, "timestamp": null, "name": "MEKIN-SIKORO [2ème C]V", "type": "school" }, "geometry": { "type": "Point", "coordinates": [ -7.98657, 12.68212 ] } },
{ "type": "Feature", "properties": { "osm_id": -1215235705.000000, "timestamp": null, "name": "MEKIN-SIKORO A", "type": "school" }, "geometry": { "type": "Point", "coordinates": [ -7.95865, 12.676083 ] } },
{ "type": "Feature", "properties": { "osm_id": -1215235704.000000, "timestamp": null, "name": "MEKIN-SIKORO B", "type": "school" }, "geometry": { "type": "Point", "coordinates": [ -7.95865, 12.676083 ] } },
{ "type": "Feature", "properties": { "osm_id": -1215235703.000000, "timestamp": null, "name": "MEKIN-SIKORO C", "type": "school" }, "geometry": { "type": "Point", "coordinates": [ -7.95865, 12.676083 ] } },
{ "type": "Feature", "properties": { "osm_id": -1215235702.000000, "timestamp": null, "name": "MEKIN-SIKORO D", "type": "school" }, "geometry": { "type": "Point", "coordinates": [ -7.95865, 12.676083 ] } },
{ "type": "Feature", "properties": { "osm_id": -1215235701.000000, "timestamp": null, "name": "MEKIN-SIKORO E", "type": "school" }, "geometry": { "type": "Point", "coordinates": [ -7.95865, 12.676083 ] } },
{ "type": "Feature", "properties": { "osm_id": -1215235700.000000, "timestamp": null, "name": "MIGNAN BAGAYOKO", "type": "school" }, "geometry": { "type": "Point", "coordinates": [ -7.959867, 12.68625 ] } },
{ "type": "Feature", "properties": { "osm_id": -1215235699.000000, "timestamp": null, "name": "MORIBOUGOU [1er C]", "type": "school" }, "geometry": { "type": "Point", "coordinates": [ -7.931817, 12.682067 ] } },
{ "type": "Feature", "properties": { "osm_id": -1215235698.000000, "timestamp": null, "name": "MORIBOUGOU [2ème C]", "type": "school" }, "geometry": { "type": "Point", "coordinates": [ -7.931817, 12.682067 ] } },
{ "type": "Feature", "properties": { "osm_id": -1215235697.000000, "timestamp": null, "name": "NAFADJI", "type": "school" }, "geometry": { "type": "Point", "coordinates": [ -7.951283, 12.698383 ] } },
{ "type": "Feature", "properties": { "osm_id": -1215235696.000000, "timestamp": null, "name": "NAMONIAN DANSIRA", "type": "school" }, "geometry": { "type": "Point", "coordinates": [ -7.9482, 12.6968 ] } },
{ "type": "Feature", "properties": { "osm_id": -1215235695.000000, "timestamp": null, "name": "NELSON MANDELA A", "type": "school" }, "geometry": { "type": "Point", "coordinates": [ -7.968187, 12.666399 ] } },
{ "type": "Feature", "properties": { "osm_id": -1215235694.000000, "timestamp": null, "name": "NELSON MANDELA D", "type": "school" }, "geometry": { "type": "Point", "coordinates": [ -7.968187, 12.666399 ] } },
{ "type": "Feature", "properties": { "osm_id": -1215235693.000000, "timestamp": null, "name": "NELSON MANDELA [2ème C] I", "type": "school" }, "geometry": { "type": "Point", "coordinates": [ -7.96681, 12.66535 ] } },
{ "type": "Feature", "properties": { "osm_id": -1215235692.000000, "timestamp": null, "name": "NELSON MANDELA [2ème C] II", "type": "school" }, "geometry": { "type": "Point", "coordinates": [ -7.96681, 12.66535 ] } },
{ "type": "Feature", "properties": { "osm_id": -1215235691.000000, "timestamp": null, "name": "NELSON MANDELA B", "type": "school" }, "geometry": { "type": "Point", "coordinates": [ -7.968187, 12.666399 ] } },
{ "type": "Feature", "properties": { "osm_id": -1215235690.000000, "timestamp": null, "name": "NELSON MANDELA C", "type": "school" }, "geometry": { "type": "Point", "coordinates": [ -7.968187, 12.666399 ] } },
{ "type": "Feature", "properties": { "osm_id": -1215235689.000000, "timestamp": null, "name": "NESLON MANDELA E", "type": "school" }, "geometry": { "type": "Point", "coordinates": [ -7.968187, 12.666399 ] } },
{ "type": "Feature", "properties": { "osm_id": -1215235688.000000, "timestamp": null, "name": "NID DU BONHEUR ANNEXE", "type": "school" }, "geometry": { "type": "Point", "coordinates": [ -7.94615, 12.691883 ] } },
{ "type": "Feature", "properties": { "osm_id": -1215235687.000000, "timestamp": null, "name": "OUMAR BOUN ABDOUL AZIZ [1er C]", "type": "school" }, "geometry": { "type": "Point", "coordinates": [ -7.955083, 12.672933 ] } },
{ "type": "Feature", "properties": { "osm_id": -1215235686.000000, "timestamp": null, "name": "OUMAR BOUN ABDOUL AZIZ [2ème C]", "type": "school" }, "geometry": { "type": "Point", "coordinates": [ -7.955083, 12.672933 ] } },
{ "type": "Feature", "properties": { "osm_id": -1215235685.000000, "timestamp": null, "name": "OUMOU AW", "type": "school" }, "geometry": { "type": "Point", "coordinates": [ -7.94895, 12.6872 ] } },
{ "type": "Feature", "properties": { "osm_id": -1215235684.000000, "timestamp": null, "name": "École privée OUMOU SIDIBE", "type": "school" }, "geometry": { "type": "Point", "coordinates": [ -7.92086, 12.67097 ] } },
{ "type": "Feature", "properties": { "osm_id": -1215235683.000000, "timestamp": null, "name": "École privée I B K [1er C]", "type": "school" }, "geometry": { "type": "Point", "coordinates": [ -7.966683, 12.67495 ] } },
{ "type": "Feature", "properties": { "osm_id": -1215235682.000000, "timestamp": null, "name": "École privée I B K [2ème C]", "type": "school" }, "geometry": { "type": "Point", "coordinates": [ -7.966683, 12.67495 ] } },
{ "type": "Feature", "properties": { "osm_id": -1215235681.000000, "timestamp": null, "name": "Privée AMITIE [1er C]", "type": "school" }, "geometry": { "type": "Point", "coordinates": [ -7.91735, 12.6803 ] } },
{ "type": "Feature", "properties": { "osm_id": -1215235680.000000, "timestamp": null, "name": "Privée AMITIE [2ème C]", "type": "school" }, "geometry": { "type": "Point", "coordinates": [ -7.91735, 12.6803 ] } },
{ "type": "Feature", "properties": { "osm_id": -1215235679.000000, "timestamp": null, "name": "École privée LAYEBOUGOU NOTRE REVE", "type": "school" }, "geometry": { "type": "Point", "coordinates": [ -7.966717, 12.677567 ] } },
{ "type": "Feature", "properties": { "osm_id": -1215235678.000000, "timestamp": null, "name": "École privée LAYEBOUGOU NOTRE REVE", "type": "school" }, "geometry": { "type": "Point", "coordinates": [ -7.966717, 12.677567 ] } },
{ "type": "Feature", "properties": { "osm_id": -1215235677.000000, "timestamp": null, "name": "École privée MOUSTAPH", "type": "school" }, "geometry": { "type": "Point", "coordinates": [ -7.962917, 12.674883 ] } },
{ "type": "Feature", "properties": { "osm_id": -1215235676.000000, "timestamp": null, "name": "École privée OUMOUTAH", "type": "school" }, "geometry": { "type": "Point", "coordinates": [ -7.94895, 12.6872 ] } },
{ "type": "Feature", "properties": { "osm_id": -1215235675.000000, "timestamp": null, "name": "École privée SOGOBA", "type": "school" }, "geometry": { "type": "Point", "coordinates": [ -7.95924, 12.67828 ] } },
{ "type": "Feature", "properties": { "osm_id": -1215235674.000000, "timestamp": null, "name": "École privée SOGOBA", "type": "school" }, "geometry": { "type": "Point", "coordinates": [ -7.95924, 12.67828 ] } },
{ "type": "Feature", "properties": { "osm_id": -1215235673.000000, "timestamp": null, "name": "RACHAD [1er C]", "type": "school" }, "geometry": { "type": "Point", "coordinates": [ -7.963167, 12.682383 ] } },
{ "type": "Feature", "properties": { "osm_id": -1215235672.000000, "timestamp": null, "name": "RACHAD [2ème C]", "type": "school" }, "geometry": { "type": "Point", "coordinates": [ -7.963167, 12.682383 ] } },
{ "type": "Feature", "properties": { "osm_id": -1215235671.000000, "timestamp": null, "name": "Renaissance [1er C]", "type": "school" }, "geometry": { "type": "Point", "coordinates": [ -7.936666, 12.67529 ] } },
{ "type": "Feature", "properties": { "osm_id": -1215235670.000000, "timestamp": null, "name": "SAAD ZIWAZA [1er C]", "type": "school" }, "geometry": { "type": "Point", "coordinates": [ -7.962217, 12.686233 ] } },
{ "type": "Feature", "properties": { "osm_id": -1215235669.000000, "timestamp": null, "name": "SAAD ZIWAZA [2ème C]", "type": "school" }, "geometry": { "type": "Point", "coordinates": [ -7.962235, 12.68656 ] } },
{ "type": "Feature", "properties": { "osm_id": -1215235668.000000, "timestamp": null, "name": "SADIO FOFANA", "type": "school" }, "geometry": { "type": "Point", "coordinates": [ -7.94837, 12.68333 ] } },